stop_id,stop_code,stop_name,stop_desc,stop_lat,stop_lon,zone_id,stop_url,location_type,parent_station
0001,,"Maine St. & Patrol Rd.",,  30.398733, -81.412609,,,0,
0003,,"Maine St. & Lamp Ave.",,  30.390350, -81.415000,,,0,
0004,,"4200 Ocean St.",,  30.387385, -81.433670,,,0,
0005,,"4200 Ocean St.",,  30.387731, -81.433586,,,0,
0006,,"Ocean St. & Pearl St.",,  30.391752, -81.431557,,,0,
0008,,"Ocean St. & Palmer St.",,  30.394376, -81.429899,,,0,
0011,,"Massey Ave. & Bryce Canyon Rd.",,  30.387747, -81.409791,,,0,
0014,,"Baltimore St. &  Massey Ave.",,  30.389340, -81.398821,,,0,
0016,,"Bailey Ave. & Supply St.",,  30.390555, -81.405640,,,0,
0018,,"Mayport Rd. & Wonderwood Dr.",,  30.372082, -81.410559,,,0,
0019,,"2965 Mayport Rd.",,  30.371770, -81.410250,,,0,
0020,,"2873 Mayport Rd.",,  30.368730, -81.410820,,,0,
0023,,"Mayport Rd. & Pioneer Dr.",,  30.367579, -81.411305,,,0,
0024,,"Mayport Rd. & Pioneer Dr.",,  30.367308, -81.411167,,,0,
0026,,"2701 Mayport Rd.",,  30.364030, -81.411750,,,0,
0027,,"2746 Mayport Rd.",,  30.364596, -81.411911,,,0,
0028,,"2746 Mayport Rd.",,  30.360160, -81.418180,,,0,
0029,,"2667 Mayport Rd.",,  30.361450, -81.412280,,,0,
0031,,"Old Mayport Rd. & Mazama Rd.",,  30.361900, -81.412370,,,0,
0032,,"Mayport Rd. & Quad Ct.",,  30.359940, -81.412780,,,0,
0033,,"Mayport Rd. & Americas Cup Dr.",,  30.359634, -81.412702,,,0,
0034,,"Mayport Rd. & Mayport Crossing Blvd.",,  30.357230, -81.413290,,,0,
0035,,"Mayport Rd. & Mayport Crossing Blvd.",,  30.357080, -81.413140,,,0,
0036,,"2610 Mayport Rd.",,  30.358290, -81.416090,,,0,
0037,,"2553 Mayport Rd.",,  30.358052, -81.415440,,,0,
0038,,"2525 Mayport Rd.",,  30.356973, -81.414115,,,0,
0039,,"Mayport Rd. & Schooners Bay Dr.",,  30.359720, -81.417840,,,0,
0040,,"Mayport Rd. & Shangri-La Dr.",,  30.361260, -81.419760,,,0,
0041,,"2787 Mayport Rd.",,  30.363430, -81.422206,,,0,
0042,,"2812 Mayport Rd.",,  30.364000, -81.423170,,,0,
0043,,"2879 Mayport Rd.",,  30.365073, -81.424254,,,0,
0044,,"Wonderwood Dr. & Mayport Rd.",,  30.365943, -81.425942,,,0,
0045,,"Wonderwood Dr. & Bayshore Dr.",,  30.366066, -81.424457,,,0,
0046,,"Wonderwood Dr. & E Bayshore Dr.",,  30.366460, -81.423770,,,0,
0047,,"Wonderwood Dr. & W. Regas Dr.",,  30.366830, -81.420960,,,0,
0048,,"Wonderwood Dr. & E. Regas Dr.",,  30.367685, -81.417650,,,0,
0049,,"Wonderwood Dr. & Apollo Dr.",,  30.369490, -81.413260,,,0,
0050,,"Wonderwood Dr. & Apollo Dr.",,  30.369870, -81.413060,,,0,
0051,,"A1A & Wonderwood Dr.",,  30.366790, -81.426890,,,0,
0052,,"Mayport Rd. & Assisi Ln.",,  30.353840, -81.413820,,,0,
0054,,"2294 Mayport Rd.",,  30.351140, -81.413690,,,0,
0055,,"2397 Mayport Rd.",,  30.351160, -81.413550,,,0,
0056,,"Mayport Rd. & Fairway Villas Dr.",,  30.346330, -81.413320,,,0,
0057,,"Mayport Rd. & Fairway Villas Dr.",,  30.347000, -81.413580,,,0,
0058,,"2122 Mayport Rd.",,  30.344150, -81.413480,,,0,
0059,,"Mayport Rd. & Church Rd.",,  30.340770, -81.413330,,,0,
0061,,"Mayport Rd. & Stanley Rd.",,  30.337240, -81.413970,,,0,
0062,,"Mayport Rd. & Levy Rd.",,  30.335560, -81.414960,,,0,
0063,,"Mayport Rd. & Donner Rd.",,  30.335160, -81.414870,,,0,
0070,,"Mayport Rd. & S. Saratoga Cir.",,  30.328480, -81.417690,,,0,
0074,,"Atlantic Blvd. & Mayport Rd.",,  30.324180, -81.418970,,,0,
0075,,"Atlantic Blvd. & Mayport Rd.",,  30.324520, -81.418560,,,0,
0076,,"1082 Atlantic Blvd.",,  30.324260, -81.416610,,,0,
0077,,"1087 Atlantic Blvd.",,  30.324520, -81.416420,,,0,
0082,,"Atlantic Blvd. & Penman Rd.",,  30.324336, -81.409249,,,0,
0108,,"Beach Blvd. & Penman Rd.",,  30.288028, -81.405021,,,0,
0109,,"Beach Blvd. & Penman Rd. fs wb",,  30.288255, -81.406252,,,0,
0144,,"South Beach Regional 4",,  30.257470, -81.389330,,,0,
0145,,"South Beach Mall 2",,  30.255400, -81.391320,,,0,
0147,,"S. 3rd St. & S. 35th Ave.",,  30.261450, -81.386940,,,0,
0148,,"S. 3rd St. & S. 35th Ave.",,  30.262010, -81.387260,,,0,
0149,,"S. 3rd St. & S. 33rd Ave.",,  30.263323, -81.387586,,,0,
0150,,"S. 3rd St. & S. 33rd Ave.",,  30.263660, -81.388030,,,0,
0153,,"3rd St. S. & Osceola St.",,  30.267970, -81.388620,,,0,
0154,,"S. 3rd St. & S. 22nd Ave.",,  30.267353, -81.388307,,,0,
0155,,"3rd St. S. & 19th Ave. S.",,  30.270630, -81.388690,,,0,
0156,,"S. 3rd St. & S. 19th Ave.",,  30.270920, -81.388470,,,0,
0157,,"S. 3rd St. & S. 16th Ave.",,  30.272350, -81.388690,,,0,
0159,,"S. 3rd St. & S. 14th Ave.",,  30.275050, -81.389000,,,0,
0161,,"S. 3rd St. & S. 13th Ave.",,  30.276240, -81.389450,,,0,
0162,,"S. 3rd St. & S. 11th Ave.",,  30.277750, -81.389540,,,0,
0163,,"3rd St. S. & 11th Ave. S.",,  30.278120, -81.389850,,,0,
0164,,"S. 3rd St. & S. 9th Ave.",,  30.279620, -81.389890,,,0,
0165,,"S. 3rd St. & S. 9th Ave.",,  30.279480, -81.390120,,,0,
0167,,"S. 3rd St. & S. 7th Ave.",,  30.281780, -81.390580,,,0,
0168,,"S. 3rd St. & S. 5th Ave.",,  30.283350, -81.390670,,,0,
0169,,"S. 3rd St. & S. 4th Ave.",,  30.284560, -81.391130,,,0,
0170,,"S. 3rd St. & S. 3rd Ave.",,  30.285170, -81.391030,,,0,
0172,,"S. 3rd St. & S. 2nd Ave.",,  30.286390, -81.391565,,,0,
0173,,"S. 3rd St. & S. 1st. Ave.",,  30.286900, -81.391300,,,0,
0180,,"N. 3rd St. & N. 1st. Ave.",,  30.289866, -81.391940,,,0,
0182,,"N. 3rd St. & N. 2nd Ave.",,  30.291080, -81.392450,,,0,
0184,,"N. 3rd St. & N. 4th Ave.",,  30.292660, -81.392476,,,0,
0185,,"N. 3rd St. & N. 4th Ave.",,  30.292939, -81.392933,,,0,
0186,,"N. 3rd St. & N. 6th Ave.",,  30.294490, -81.392920,,,0,
0187,,"N. 3rd St. & N. 6th Ave.",,  30.294853, -81.393268,,,0,
0188,,"N. 3rd St. & N. 9th Ave.",,  30.297290, -81.393520,,,0,
0189,,"N. 3rd St. & N. 9th Ave.",,  30.297610, -81.393770,,,0,
0191,,"N. 3rd St. & N. 11th Ave.",,  30.299480, -81.394150,,,0,
0192,,"N. 3rd St. & N. 13th Ave.",,  30.301080, -81.394270,,,0,
0193,,"N. 3rd St. & N. 13th Ave.",,  30.301330, -81.394540,,,0,
0194,,"N. 3rd St. & N. 15th Ave.",,  30.302870, -81.394630,,,0,
0196,,"N. 3rd St. & N. 16th Ave.",,  30.303810, -81.394810,,,0,
0197,,"N. 3rd St. & N. 16th Ave.",,  30.304190, -81.395120,,,0,
0198,,"N. 3rd St. & N. 18th Ave.",,  30.305700, -81.395210,,,0,
0199,,"N. 3rd St. & N. 20th Ave.",,  30.307529, -81.395534,,,0,
0200,,"3rd St. & N. 18th Ave.",,  30.306040, -81.395480,,,0,
0201,,"3rd St. & Seagate Ave.",,  30.308010, -81.395870,,,0,
0202,,"3rd St. & Myra St.",,  30.310040, -81.396300,,,0,
0203,,"3rd St. & Davis St.",,  30.312310, -81.396620,,,0,
0204,,"N. 3rd St. & Myra St.",,  30.309690, -81.396050,,,0,
0205,,"N. 3rd St. & Davis St.",,  30.312370, -81.396430,,,0,
0206,,"N. 3rd St. & Florida St.",,  30.314150, -81.396690,,,0,
0207,,"N. 3rd St. & Bay St.",,  30.316500, -81.397020,,,0,
0208,,"3rd St. & Bay St.",,  30.316810, -81.397260,,,0,
0209,,"3rd St. & Florida Blvd.",,  30.314630, -81.396950,,,0,
0210,,"3rd St. & Cedar St.",,  30.319010, -81.397330,,,0,
0211,,"3rd St. & Cedar St.",,  30.319330, -81.397610,,,0,
0212,,"3rd St. & Orange St.",,  30.322450, -81.397820,,,0,
0213,,"3rd St. & Walnut St.",,  30.320750, -81.397570,,,0,
0214,,"3rd St. & Walnut St.",,  30.321060, -81.397850,,,0,
0215,,"3rd St. & Lemon St.",,  30.323600, -81.398210,,,0,
0216,,"500 Atlantic Blvd.",,  30.324413, -81.399787,,,0,
0219,,"Atlantic Blvd. & OPP Seminole Rd.",,  30.324296, -81.406199,,,0,
0221,,"Atlantic Blvd. & Royal Palms Dr.",,  30.324648, -81.409056,,,0,
0222,,"14351 Wonderwood Dr.",,  30.358480, -81.464168,,,0,
0223,,"14360 Wonderwood Dr.",,  30.358034, -81.463238,,,0,
0224,,"Mt. Pleasant Rd. & Gately Rd.",,  30.358570, -81.472730,,,0,
0225,,"Mt. Pleasant Rd. & W Pleasant Point Ln.",,  30.358860, -81.472340,,,0,
0226,,"McCormick Rd. & Long Leaf Pine Wy.",,  30.358960, -81.479620,,,0,
0227,,"McCormick Rd. & McCormick Woods Dr.",,  30.359290, -81.481610,,,0,
0228,,"McCormick Rd. & Kernan Blvd.",,  30.359748, -81.489742,,,0,
0229,,"McCormick Rd. & Kernan Blvd.",,  30.359390, -81.488720,,,0,
0230,,"12195 McCormick Rd.",,  30.360053, -81.494659,,,0,
0231,,"12230 McCormick Rd.",,  30.359620, -81.493740,,,0,
0232,,"McCormick Rd. & Monument Rd. ns",,  30.360285, -81.499852,,,0,
0233,,"12034 McCormick Rd.",,  30.359900, -81.498860,,,0,
0234,,"11717 McCormick Rd.",,  30.360060, -81.507900,,,0,
0235,,"2489 Monument Rd.",,  30.358540, -81.503000,,,0,
0236,,"1937 Monument Rd.",,  30.353680, -81.507870,,,0,
0237,,"McCormick Rd. & Links Terr.",,  30.360461, -81.505708,,,0,
0238,,"Monument Rd. & Derringer Rd.",,  30.351940, -81.512200,,,0,
0239,,"Monument Rd. & Ft. Caroline Lakes Ct.",,  30.352940, -81.509580,,,0,
0240,,"Monument Rd. & Monument Oaks Dr.",,  30.350560, -81.515880,,,0,
0241,,"Monument Rd. Park-n-Ride Lot",,  30.349390, -81.519100,,,0,
0242,,"McCormick Rd. & Deeringer Cir.",,  30.358535, -81.513055,,,0,
0243,,"1505 Monument Rd.",,  30.346639, -81.526330,,,0,
0244,,"1500 Monument Rd.",,  30.347162, -81.525961,,,0,
0261,,"Monument Rd. & Classic Oak Rd. W.",,  30.344206, -81.534224,,,0,
0263,,"Monument Rd. & Lee Rd.",,  30.343015, -81.537194,,,0,
0264,,"Monument Rd. & Lee Rd.",,  30.342865, -81.536143,,,0,
0265,,"Monument Rd. & Brookwood Forest Blvd.",,  30.343610, -81.534440,,,0,
0268,,"Atlantic Blvd. & Cocoanut Rd.",,  30.321410, -81.447150,,,0,
0269,,"Atlantic Blvd. & San Pablo Rd.",,  30.320790, -81.449810,,,0,
0270,,"13475 Atlantic Blvd.",,  30.321710, -81.447240,,,0,
0271,,"Atlantic Blvd. & Hodges Blvd.",,  30.320160, -81.457930,,,0,
0272,,"Atlantic Blvd. & Joeandy Rd.",,  30.320370, -81.459630,,,0,
0273,,"Atlantic Blvd. & Deer Run Trail",,  30.318403, -81.472013,,,0,
0274,,"Atlantic Blvd. & The Woods Dr.",,  30.319850, -81.466460,,,0,
0275,,"Atlantic Blvd. & The Woods Dr.",,  30.319510, -81.466740,,,0,
0276,,"Atlantic Blvd. & Girvin Rd.",,  30.318100, -81.474020,,,0,
0277,,"Atlantic Blvd. & Kensington Gardens Blvd.",,  30.318023, -81.481096,,,0,
0278,,"Altantic Blvd. & Hickory Creek Blvd.",,  30.318520, -81.481930,,,0,
0279,,"12338 Atlantic Blvd.",,  30.318590, -81.485160,,,0,
0280,,"Atlantic Blvd. & Kernan Blvd.",,  30.319080, -81.488630,,,0,
0281,,"Atlantic Blvd. & Kernan Blvd.",,  30.319960, -81.491060,,,0,
0282,,"Atlantic Blvd. & Withrow Dr.",,  30.321460, -81.496540,,,0,
0283,,"Atlantic Blvd. & Withrow Dr.",,  30.321320, -81.497310,,,0,
0284,,"Atlantic Blvd. & Sutton Lakes Blvd.",,  30.324223, -81.507136,,,0,
0285,,"Atlantic Blvd. & Sutton Lakes Blvd.",,  30.323980, -81.508000,,,0,
0286,,"11110 Atlantic Blvd.",,  30.324371, -81.512316,,,0,
0287,,"11145 Atlantic Blvd.",,  30.324680, -81.511820,,,0,
0288,,"Atlantic Blvd.  & Sandalwood Blvd.",,  30.324469, -81.516966,,,0,
0289,,"Atlantic Blvd. & Mindanao Dr.",,  30.324821, -81.518712,,,0,
0290,,"Atlantic Blvd. & St. Johns Bluff Rd.",,  30.324524, -81.524316,,,0,
0291,,"Atlantic Blvd. & St. Johns Bluff Rd.",,  30.324426, -81.521929,,,0,
0293,,"St. Johns Bluff Rd. & Theresa Dr.",,  30.321810, -81.523320,,,0,
0294,,"St. Johns Bluff Rd. & Bahia Dr.",,  30.321510, -81.523040,,,0,
0302,,"Beach Blvd. & San Pablo Rd.",,  30.287778, -81.436776,,,0,
0303,,"Beach Blvd. & San Pablo Rd.",,  30.288089, -81.439610,,,0,
0306,,"13924 Beach Blvd.",,  30.287656, -81.450017,,,0,
0309,,"Beach Blvd. & Suni Pines Blvd.",,  30.287891, -81.449622,,,0,
0315,,"Beach Blvd. & Hodges Blvd. ns eb",,  30.287520, -81.460920,,,0,
0316,,"Beach Blvd. & Hodges Blvd. fs wb",,  30.287765, -81.461039,,,0,
0319,,"Beach Blvd. & Kernan Blvd. ns",,  30.287496, -81.484822,,,0,
0320,,"Beach Blvd. & Kernan Blvd.",,  30.287235, -81.487378,,,0,
0322,,"3410 Kernan Blvd.",,  30.284076, -81.489923,,,0,
0324,,"3601 Kernan Blvd.",,  30.280369, -81.492005,,,0,
0325,,"Kernan Blvd. & The District at Kernan",,  30.281088, -81.492117,,,0,
0326,,"Kernan Blvd. & Gehrig Dr.",,  30.276718, -81.493505,,,0,
0327,,"Kernan Blvd. & Ash Harbor Dr.",,  30.274332, -81.494286,,,0,
0328,,"Kernan Blvd. & Mantle Dr.",,  30.274303, -81.494897,,,0,
0329,,"Kernan Blvd. & Apple Leaf Dr.",,  30.272592, -81.494487,,,0,
0331,,"Kernan Blvd. & Blue Stream Dr.",,  30.268808, -81.495333,,,0,
0332,,"Kernan Blvd. & Blue Stream Dr.",,  30.269138, -81.494823,,,0,
0333,,"Kernan Blvd. & First Coast Tech Pkwy.",,  30.265113, -81.495393,,,0,
0334,,"Kernan Blvd. & First Coast Technology Pkwy.",,  30.264604, -81.495761,,,0,
0335,,"Alumni Dr. & Kernan Blvd.",,  30.261524, -81.502068,,,0,
0337,,"Alumni Dr. & UNF Dr.",,  30.262540, -81.502950,,,0,
0338,,"UNF Dr. & Alumni Dr. ns",,  30.265450, -81.504543,,,0,
0341,,"1 UNF Dr.",,  30.272873, -81.508648,,,0,
0342,,"U.N.F.",,  30.268822, -81.509842,,,0,
0351,,"12387 Beach Blvd. wb",,  30.287471, -81.491636,,,0,
0353,,"Beach Blvd. & Sans Pareil St.",,  30.287418, -81.495174,,,0,
0354,,"Beach Blvd. & Pemberton Rd.",,  30.287108, -81.496026,,,0,
0357,,"12000 Beach Blvd.",,  30.287066, -81.501538,,,0,
0359,,"Beach Blvd. & Meadowbrook Blvd.",,  30.287339, -81.501770,,,0,
0360,,"Beach Blvd. & Central Pkwy.",,  30.286958, -81.509602,,,0,
0365,,"Beach Blvd. & Beachwood Ct. ns eb",,  30.286865, -81.516703,,,0,
0366,," Beach Blvd. & Beachwood Blvd. ns wb",,  30.287180, -81.515800,,,0,
0367,,"11655 Beach Blvd.",,  30.287155, -81.518995,,,0,
0386,,"2465 St. Johns Bluff Rd.",,  30.310680, -81.525230,,,0,
0388,,"St. Johns Bluff Rd. & Alden Rd.",,  30.304210, -81.525830,,,0,
0390,,"St. Johns Bluff Rd. & Fraser Rd.",,  30.304650, -81.526090,,,0,
0391,,"St. Johns Bluff Rd. & Lost Pine Dr.",,  30.308970, -81.525810,,,0,
0392,,"St. Johns Bluff Rd. & Bradley Rd.",,  30.313080, -81.525430,,,0,
0393,,"Atlantic Blvd. & Brookview Dr.",,  30.323880, -81.529674,,,0,
0394,,"Atlantic Blvd. & Brookview Dr.",,  30.323650, -81.530310,,,0,
0395,,"Atlantic Blvd. & Cortez Rd.",,  30.323330, -81.533510,,,0,
0396,,"Atlantic Blvd. & Jackson Rd.",,  30.323646, -81.532167,,,0,
0397,,"Atlantic Blvd. & Lee Rd.",,  30.323269, -81.535554,,,0,
0398,,"Atlantic Blvd. & Debutante Dr.",,  30.323060, -81.536080,,,0,
0399,,"Atlantic Blvd. & Leon Rd.",,  30.323050, -81.537729,,,0,
0400,,"Atlantic Blvd. & Leon Rd.",,  30.322820, -81.538330,,,0,
0401,,"Atlantic Blvd. & Anniston Rd.",,  30.322590, -81.542100,,,0,
0402,,"Atlantic Blvd. & Library Rd.",,  30.322367, -81.544004,,,0,
0403,,"9848 Atlantic Blvd.",,  30.322230, -81.543960,,,0,
0404,,"Atlantic Blvd. & Monument Rd.",,  30.322144, -81.546626,,,0,
0405,,"Atlantic Blvd. & Live Oak Dr.",,  30.321787, -81.547101,,,0,
0406,,"Regency Square Hub",,  30.321906, -81.552434,,,0,
0407,,"9439 Atlantic Blvd.",,  30.319795, -81.553301,,,0,
0408,,"Swelo Rd. & Arlington Expy.",,  30.319712, -81.558405,,,0,
0409,,"Walmart on Monument",,  30.341168, -81.546966,,,0,
0410,,"Monument Rd. & Tredinick Pkwy.",,  30.337680, -81.545040,,,0,
0411,,"856 Monument Rd.",,  30.337130, -81.545710,,,0,
0412,,"989 Monument Rd.",,  30.335955, -81.546003,,,0,
0413,,"730 Monument Rd.",,  30.334747, -81.546827,,,0,
0414,,"544 Monument Rd.",,  30.333866, -81.546656,,,0,
0416,,"Monument Rd. & Atrium Way fs nb",,  30.331914, -81.546826,,,0,
0417,,"Monument Rd. & N. Regency Square Blvd.",,  30.330979, -81.547188,,,0,
0418,,"445 Monument Rd.",,  30.329630, -81.546880,,,0,
0419,,"N. Regency Square Blvd. & Commerce Ctr. Dr. ns sb",,  30.329110, -81.547050,,,0,
0421,,"355 Monument Rd.",,  30.327582, -81.546847,,,0,
0422,,"Monument Rd. & S. Regency Square Blvd.",,  30.326610, -81.547040,,,0,
0423,,"237 Monument Rd.",,  30.325150, -81.546760,,,0,
0424,,"9520 Regency Square Blvd. & Homedepot nb",,  30.327630, -81.548870,,,0,
0425,,"Southside Blvd. & Kendall Towne",,  30.343740, -81.551950,,,0,
0426,,"9520 N. Regency Square Blvd.(Target)",,  30.328436, -81.548891,,,0,
0429,,"9550 S. Regency Square Blvd.",,  30.326215, -81.550198,,,0,
0432,,"9501 Arlington Expwy.",,  30.323230, -81.558340,,,0,
0433,,"Regency Parking Lot & Arlington Expy. Serv. Rd.",,  30.323510, -81.558660,,,0,
0452,,"Beach Blvd. & Eve Dr. eb",,  30.286441, -81.555296,,,0,
0453,,"Beach Blvd. & Kline Rd. wb",,  30.286688, -81.555437,,,0,
0454,,"Beach Blvd. & Peach Dr. eb",,  30.286496, -81.548808,,,0,
0455,,"Beach Blvd. & Peach Dr. wb",,  30.286800, -81.547900,,,0,
0456,,"Beach Blvd. & Forest Blvd.",,  30.286554, -81.544509,,,0,
0457,,"Beach Blvd. & Forest Blvd.",,  30.286866, -81.543903,,,0,
0458,,"Beach Blvd. & Anniston Rd.",,  30.286612, -81.539503,,,0,
0459,,"Beach Blvd. & Anniston Rd.",,  30.286920, -81.538704,,,0,
0460,,"Beach Blvd. & Leon Rd.",,  30.286955, -81.536008,,,0,
0461,,"10900 Beach Blvd.",,  30.286639, -81.535806,,,0,
0462,,"Beach Blvd. & Country Side eb",,  30.286663, -81.533803,,,0,
0463,,"Beach Blvd. & Desalvo Rd. wb",,  30.287012, -81.532209,,,0,
0464,,"Beach Blvd. & Cortez Rd. wb",,  30.286998, -81.528516,,,0,
0465,,"Beach Blvd. & Cortez Rd. eb",,  30.286711, -81.529427,,,0,
0466,,"Southside Blvd. & Cargal St.",,  30.280758, -81.559396,,,0,
0468,,"Eve Dr. W & Anders Blvd.",,  30.277982, -81.557534,,,0,
0470,,"Anders Blvd. & Eve Dr. East",,  30.278020, -81.555040,,,0,
0471,,"Anders Blvd. & Eve Dr. East",,  30.277910, -81.555330,,,0,
0472,,"Anders Blvd. & Peach Dr.",,  30.278080, -81.550930,,,0,
0473,,"Anders Blvd. & Peach Dr.",,  30.277981, -81.551592,,,0,
0474,,"Anders Blvd. & Packard Dr.",,  30.278140, -81.544750,,,0,
0475,,"Anders Blvd. & Forest Blvd.",,  30.278019, -81.543364,,,0,
0480,,"Town Center Pkwy. & Brightman Blvd.",,  30.265030, -81.528030,,,0,
0481,,"Town Center Pkwy. & Brightman Blvd.",,  30.264400, -81.527920,,,0,
0483,,"4624 Town Crossing Dr.",,  30.259923, -81.527170,,,0,
0484,,"Town Crossing Dr. & Buckhead Branch Dr.",,  30.254680, -81.527170,,,0,
0486,,"Gate Pkwy. & Skinner Lake Dr.",,  30.252840, -81.536180,,,0,
0487,,"10151 Gate Pkwy.",,  30.256035, -81.537173,,,0,
0490,,"10190 Gate Pkwy.",,  30.256714, -81.538957,,,0,
0491,,"10000 Gate Pkwy.",,  30.257020, -81.540840,,,0,
0492,,"9877 Gate Pkwy.",,  30.257829, -81.543477,,,0,
0493,,"Gate Pkwy. & Deerwood Campus Pkwy.",,  30.258040, -81.544600,,,0,
0494,,"Gate Pkwy. & Deer Lake Dr. E",,  30.258780, -81.545380,,,0,
0495,,"Gate Pkwy. & Deer Lake Dr. E",,  30.259600, -81.546820,,,0,
0496,,"Gate Pkwy. & Touchton Rd.",,  30.261250, -81.548670,,,0,
0497,,"Gate Pkwy. & Deer Lake Dr.",,  30.261540, -81.550140,,,0,
0498,,"Gate Pkwy. & Deer Lake Dr.",,  30.261490, -81.552865,,,0,
0499,,"Gate Pkwy. & Deer Lake Dr.",,  30.261396, -81.552143,,,0,
0500,,"Tinseltown",,  30.262983, -81.554022,,,0,
0501,,"Tinseltown",,  30.262967, -81.554267,,,0,
0502,,"Deer Lake Dr. & Deer Lake Ct.",,  30.265127, -81.555457,,,0,
0503,,"9751 Deer Lake Ct.",,  30.266210, -81.555000,,,0,
0504,,"Deer Lake Ct. & Touchton Rd.",,  30.267050, -81.554720,,,0,
0506,,"Touchton Rd. & Deer Lake Ct.",,  30.268194, -81.554911,,,0,
0507,,"Touchton Rd. & Southside Blvd.",,  30.269028, -81.555846,,,0,
0508,,"Touchton Rd. & Southside Blvd.",,  30.269345, -81.557744,,,0,
0509,,"Gate Pkwy. & Deerwood Park Blvd.",,  30.248280, -81.536060,,,0,
0512,,"10551 Deerwood Park Blvd.",,  30.247560, -81.540560,,,0,
0513,,"10551 Deerwood Park Blvd.",,  30.247788, -81.539004,,,0,
0525,,"Deerwood Park Blvd. & Southside Blvd.",,  30.240270, -81.550470,,,0,
0526,,"Deerwood Park Blvd. & Southside Blvd.",,  30.240420, -81.549140,,,0,
0527,,"651 Commerce Center Dr. & Ross Regency nb",,  30.334883, -81.550943,,,0,
0528,,"651 Commerce Center Dr. & Ross  Regency sb",,  30.334927, -81.551037,,,0,
0529,,"438 Commerce Center Dr.& Cracker Barrel nb",,  30.332849, -81.551075,,,0,
0530,,"438 Commerce Center Dr.& Cracker Barrel sb",,  30.332367, -81.551284,,,0,
0531,,"860 Commerce Center Dr. & Bealls Regency wb",,  30.336693, -81.550358,,,0,
0532,,"860 Commerce Center Dr. & Bealls Regency eb",,  30.336780, -81.549980,,,0,
0533,,"Hogan Rd. & Southside Blvd.",,  30.274190, -81.558390,,,0,
0534,,"7524 Southside Service Rd.",,  30.237860, -81.552310,,,0,
0535,,"Southside Blvd. & Southbrook Dr.",,  30.236307, -81.552394,,,0,
0536,,"7632 Southside Blvd.",,  30.235090, -81.552320,,,0,
0538,,"7716 Southside Blvd.",,  30.231740, -81.552440,,,0,
0539,,"Southside Blvd. & Fawn Ridge Dr.",,  30.229056, -81.552556,,,0,
0540,,"7932 Southside Blvd.",,  30.226340, -81.552300,,,0,
0541,,"7932 Southside Blvd.",,  30.227039, -81.552485,,,0,
0542,,"8024 Southside Blvd.",,  30.224330, -81.552260,,,0,
0543,,"8024 Southside Blvd.",,  30.224570, -81.552350,,,0,
0544,,"8082 Southside Blvd.",,  30.222590, -81.552320,,,0,
0546,,"Southside Blvd. & Baymeadows Rd.",,  30.219910, -81.552360,,,0,
0553,,"9341 Atlantic Blvd.",,  30.318065, -81.556369,,,0,
0558,,"Ft. Caroline Rd. & Crimson Oaks Dr.",,  30.366710, -81.578750,,,0,
0560,,"Townsend Blvd. & Colony Cove Ln.",,  30.365400, -81.576952,,,0,
0561,,"Townsend Blvd. & Ft. Caroline Hills Dr. fs",,  30.365327, -81.577130,,,0,
0562,,"3450 Townsend Blvd.",,  30.363060, -81.577180,,,0,
0563,,"3433 Townsend Blvd.",,  30.362730, -81.577080,,,0,
0565,,"Townsend Blvd. & US Open Blvd.",,  30.360748, -81.577028,,,0,
0566,,"Townsend Blvd. & Green Arbor Pl.",,  30.358610, -81.577600,,,0,
0567,,"Townsend Blvd. & White Birch Dr.",,  30.358530, -81.577475,,,0,
0568,,"Townsend Blvd. & Greenfern Ln.",,  30.356590, -81.578180,,,0,
0569,,"Townsend Blvd. & Floral Ridge Dr.",,  30.355992, -81.578070,,,0,
0571,,"Townsend Blvd. & opp. Sandhurst Rd.",,  30.353570, -81.578170,,,0,
0572,,"Sandhurst Rd. & Townsend Blvd.",,  30.353520, -81.577740,,,0,
0573,,"Provident Dr. & S. Sandhurst Rd.",,  30.353410, -81.575860,,,0,
0574,,"Merrill Rd. & Hartsfield Rd.",,  30.352421, -81.562640,,,0,
0575,,"Merrill Rd. & Hartsfield Rd.",,  30.352280, -81.560990,,,0,
0576,,"8059 Merrill Rd.",,  30.352480, -81.558440,,,0,
0577,,"Merrill Rd. & Sunrise Ridge Ln.",,  30.352300, -81.558020,,,0,
0580,,"8059 Merrill Rd.",,  30.352240, -81.563190,,,0,
0597,,"Merrill Rd. & Wedgefield Blvd.",,  30.352052, -81.569414,,,0,
0598,,"Merrill Rd. & W. Kingstree Dr.",,  30.352072, -81.570991,,,0,
0599,,"Merrill Rd. & W. Wycombe Dr.",,  30.352210, -81.571120,,,0,
0600,,"7440 Merrill Rd.",,  30.352070, -81.572200,,,0,
0601,,"Merrill Rd. & Lansdowne Dr.",,  30.352197, -81.573605,,,0,
0602,,"Merrill Rd. & Lansdowne Dr.",,  30.352020, -81.574010,,,0,
0603,,"Merrill Rd. & Provident Rd.",,  30.352124, -81.575620,,,0,
0607,,"2710 Townsend Blvd.",,  30.350650, -81.577600,,,0,
0608,,"Townsend Blvd. & Mayapple Rd.",,  30.348191, -81.577600,,,0,
0609,,"Townsend Blvd. & Mayapple Rd.",,  30.347852, -81.577325,,,0,
0610,,"Townsend Blvd. & Arble Dr.",,  30.345060, -81.577430,,,0,
0611,,"Townsend Blvd. & Marble Dr.",,  30.344450, -81.577450,,,0,
0612,,"Townsend Blvd. & Afton Ln.",,  30.342260, -81.577470,,,0,
0613,,"Townsend Blvd. & Parker School Rd.",,  30.342040, -81.577370,,,0,
0614,,"Townsend Blvd. & Woodleigh Dr.",,  30.340146, -81.576154,,,0,
0615,,"Townsend Blvd. & Woodleigh Dr.",,  30.340100, -81.575970,,,0,
0616,,"Townsend Blvd. & Lone Star Rd.",,  30.338030, -81.574320,,,0,
0617,,"Townsend Blvd. & Lone Star Rd.",,  30.337440, -81.573980,,,0,
0618,,"Townsend Blvd. & Timber Ln.",,  30.336050, -81.574140,,,0,
0619,,"Townsend Blvd. & Timber Ln.",,  30.335790, -81.574110,,,0,
0620,,"Townsend Blvd. & Alderman Rd.",,  30.332640, -81.574150,,,0,
0621,,"Townsend Blvd. & Alderman Rd.",,  30.332330, -81.574100,,,0,
0622,,"Townsend Blvd. & S. Carlotta Rd.",,  30.330100, -81.572840,,,0,
0623,,"Townsend Blvd. & Carlotta Rd.",,  30.329830, -81.572710,,,0,
0624,,"Townsend Blvd. & S. Arlington Expwy.",,  30.328740, -81.572970,,,0,
0625,,"Townsend Blvd. & S. Arlington Expwy.",,  30.328200, -81.572810,,,0,
0638,,"Ft. Caroline Rd. & Cherokee Villa Ln.",,  30.366600, -81.583210,,,0,
0639,,"Ft. Caroline Rd. & E. Haslett Dr.",,  30.366540, -81.586770,,,0,
0640,,"Ft. Caroline Rd. & Hoover Ln.",,  30.366430, -81.585260,,,0,
0641,,"Ft. Caroline Rd. & Rogero Rd.",,  30.366390, -81.588150,,,0,
0651,,"Ft. Caroline Rd. & Heath Rd.",,  30.366490, -81.590080,,,0,
0652,,"Ft. Caroline Rd. & opp. Heath Rd.",,  30.366222, -81.589883,,,0,
0653,,"6190 Ft. Caroline Rd.",,  30.366191, -81.594361,,,0,
0654,,"6205 Ft. Caroline Rd.",,  30.366430, -81.594530,,,0,
0655,,"Ft. Caroline Rd. & University Club Blvd.",,  30.366419, -81.596423,,,0,
0656,,"University Club Blvd. & Ft. Caroline Rd.",,  30.366910, -81.596785,,,0,
0657,,"3781 University Club Blvd.",,  30.369009, -81.596917,,,0,
0659,,"University Club Blvd. & opp. Round Lake Rd.",,  30.372378, -81.596969,,,0,
0660,,"University Club Blvd. & Jimtom Dr.",,  30.374483, -81.597041,,,0,
0661,,"University Club Blvd. & E Green Willow Ln.",,  30.375576, -81.597879,,,0,
0662,,"Univeristy Club Blvd. & E Briarforest Rd.",,  30.376890, -81.599581,,,0,
0663,,"University Club Bl & W. Piney Creek Ln.",,  30.377658, -81.602789,,,0,
0665,,"University Club Blvd. & Wilcrest Cir.",,  30.377409, -81.605890,,,0,
0666,,"University Blvd. & Meek Dr.",,  30.374806, -81.607057,,,0,
0667,,"University Blvd. & Edmar Rd.",,  30.372409, -81.607612,,,0,
0669,,"University Blvd. & Maxine Dr.",,  30.369072, -81.608296,,,0,
0670,," Universtity Blvd & Selton",,  30.367220, -81.607960,,,0,
0671,,"5959 Ft. Caroline Rd.",,  30.366010, -81.598580,,,0,
0672,,"Ft. Caroline Rd. & Peeler Rd.",,  30.365606, -81.599021,,,0,
0673,,"Ft. Caroline Rd. & Cesery Blvd.",,  30.365240, -81.601225,,,0,
0674,,"Ft. Caroline Rd. & Cesery Dr.",,  30.365497, -81.600839,,,0,
0675,,"Ft. Caroline Rd. & University Blvd.",,  30.364468, -81.605158,,,0,
0678,,"University Blvd.  & opp. Alumni Dr.",,  30.358740, -81.604970,,,0,
0679,,"3291 University Blvd. & Alumni Dr",,  30.358734, -81.605159,,,0,
0681,,"Holly Bell Dr. & Justina Ter.",,  30.356942, -81.603499,,,0,
0682,,"Holly Bell Dr. & Justina Ter.",,  30.356770, -81.603374,,,0,
0683,,"Holly Bell Dr. & Tall Pine Ln.",,  30.356830, -81.601861,,,0,
0684,,"Holly Bell Dr. & Tall Pine Ln.",,  30.357029, -81.601436,,,0,
0687,,"3000 Justina Rd.",,  30.355200, -81.599791,,,0,
0688,,"Justina Rd. & Tall Pine Ln.",,  30.353958, -81.599488,,,0,
0690,,"Merrill Rd. & Yellow Pine Dr.",,  30.351740, -81.600230,,,0,
0691,,"Merrill Rd. & Yellow Pine Dr.",,  30.351638, -81.599925,,,0,
0692,,"University Blvd. & Merrill Rd.",,  30.350560, -81.602580,,,0,
0693,,"University Blvd. & Merill Rd.",,  30.350770, -81.602760,,,0,
0695,,"2511 University Blvd.",,  30.348290, -81.602880,,,0,
0696,,"University Blvd. & Liddell Ln. nb ns",,  30.347370, -81.602694,,,0,
0699,,"University Blvd. & Burdette Rd.",,  30.345210, -81.602810,,,0,
0700,,"University Blvd. & Lake Lucina Dr.",,  30.344520, -81.602620,,,0,
0702,,"University Blvd. & Dickson Rd.",,  30.341769, -81.602736,,,0,
0703,,"University Blvd. & Dickson Rd.",,  30.341450, -81.602560,,,0,
0706,,"University Blvd. & Gable Ln.",,  30.338790, -81.602650,,,0,
0707,,"University Blvd. & Wiltshire St. nb fs",,  30.338738, -81.602483,,,0,
0710,,"University Blvd. & Macy Ave. sb fs",,  30.335634, -81.602751,,,0,
0711,,"University Blvd. & Macy Ave.",,  30.335780, -81.602630,,,0,
0712,,"University Blvd. & Arlington Rd.",,  30.333920, -81.602950,,,0,
0713,,"University Blvd. & Arlington Rd.",,  30.332920, -81.602970,,,0,
0716,,"University Blvd. & Los Santos Way",,  30.330170, -81.603540,,,0,
0717,,"University Blvd. & Los Santos Way",,  30.329620, -81.603590,,,0,
0718,,"5865 Arlington Expwy.",,  30.327655, -81.600419,,,0,
0719,,"Cesery Blvd. & opp. Egret Point Ln.",,  30.325220, -81.597040,,,0,
0720,,"Cesery Blvd. & Egret Point Ln.",,  30.325140, -81.596850,,,0,
0721,,"Arlington Expwy. & Arlington River Dr.",,  30.327100, -81.599576,,,0,
0723,,"Arlington Expwy. & Cesery Blvd.",,  30.327160, -81.597270,,,0,
0724,,"Arlington Expwy. & Cesery Blvd.",,  30.327700, -81.596730,,,0,
0725,,"Arlington Expwy. & Seabrook Cove Rd.",,  30.327190, -81.594980,,,0,
0726,,"Arlington Expwy. & Seabrook Pkwy.",,  30.327220, -81.592580,,,0,
0727,,"Arlington Expwy. & Underhill Dr.",,  30.327790, -81.591340,,,0,
0728,,"Arlington Expwy. & Arlington Rd",,  30.327280, -81.586130,,,0,
0729,,"Arlington Expwy. & Rogero Rd.",,  30.327810, -81.588890,,,0,
0730,,"Arlington Expwy. & Larkin Rd.",,  30.327230, -81.588760,,,0,
0732,,"Arlington Expwy. & Arlington Rd.",,  30.327769, -81.585940,,,0,
0733,,"6845 Arlington Expwy.",,  30.327770, -81.586820,,,0,
0734,,"S. Arlington Expwy. & Bert Rd.",,  30.327820, -81.584200,,,0,
0735,,"S. Arlington Expwy. & Bert Rd.",,  30.327696, -81.584137,,,0,
0736,,"7207 S. Arlington Expwy.",,  30.327323, -81.583625,,,0,
0737,,"7207 S. Arlington Expwy.",,  30.327270, -81.583360,,,0,
0738,,"7528 S. Arlington  Expwy.",,  30.327370, -81.580766,,,0,
0739,,"7528 S. Arlington Expwy.",,  30.327280, -81.580930,,,0,
0740,,"7505 S. Arlington Expwy.",,  30.327880, -81.579600,,,0,
0741,,"7505 S. Arlington Expwy.",,  30.327790, -81.579770,,,0,
0743,,"7600 S. Arlington  Expwy.",,  30.327430, -81.577140,,,0,
0744,,"7600 S. Arlington Expwy.",,  30.327340, -81.577150,,,0,
0746,,"Arlington Expwy. & Alderman Rd.",,  30.327930, -81.578090,,,0,
0747,,"Arlington Expwy. & Alderman Rd.",,  30.327772, -81.578277,,,0,
0748,,"7471 Arlington Expwy.",,  30.327910, -81.576050,,,0,
0749,,"7471 Arlington Expwy.",,  30.327800, -81.576520,,,0,
0750,,"7960 S. Arlington Expwy.",,  30.327430, -81.573840,,,0,
0751,,"7960 S. Arlington Expwy.",,  30.327330, -81.574100,,,0,
0753,,"8060 S. Arlington  Expwy.",,  30.327020, -81.570120,,,0,
0754,,"8124 Arlington Expwy.",,  30.326620, -81.568930,,,0,
0759,,"S. Arlington Expwy. & Century St.",,  30.325840, -81.566118,,,0,
0760,,"8324 Arlington Expwy.",,  30.325588, -81.565989,,,0,
0761,,"8560 Arlington Expy.",,  30.324151, -81.562537,,,0,
0764,,"Mill Creek Rd. & Jasper Ave.",,  30.322743, -81.560599,,,0,
0765,,"Mill Creek Rd. & Galveston Ave.",,  30.320034, -81.560258,,,0,
0766,,"Atlantic Blvd. & Mill Creek Rd.",,  30.316040, -81.559870,,,0,
0767,,"Atlantic Blvd. & Corporate Square Blvd.",,  30.314470, -81.562220,,,0,
0768,,"Atlantic Blvd. & Caravan Trl.",,  30.314240, -81.563850,,,0,
0769,,"Atlantic Blvd. & Lamson St.",,  30.314379, -81.563832,,,0,
0770,,"8712 Atlantic Blvd.",,  30.314070, -81.565690,,,0,
0771,,"8623 Atlantic Blvd.",,  30.314180, -81.566530,,,0,
0773,,"Atlantic Blvd. & Bowlan St.",,  30.314050, -81.568840,,,0,
0774,,"Bowlan St. & Berry Ave.",,  30.315610, -81.569040,,,0,
0775,,"Bowlan St. & Berry Ave.",,  30.315894, -81.569263,,,0,
0778,,"Bowlan St. & Free Ave.",,  30.318547, -81.569230,,,0,
0779,,"Bowlan St. & Free Ave.",,  30.318853, -81.569478,,,0,
0780,,"Bowlan St. & Hare Ave.",,  30.320230, -81.569380,,,0,
0781,,"Bowlan St. & Hare Ave.",,  30.320569, -81.569704,,,0,
0783,,"Kona Ave. & Bowlan St.",,  30.322790, -81.569980,,,0,
0784,,"Kona Ave. & Acme St.",,  30.322750, -81.573040,,,0,
0786,,"Acme St. & India Ave.",,  30.321150, -81.573080,,,0,
0787,,"Acme St. & Hare Ave.",,  30.320001, -81.572740,,,0,
0788,,"Acme St. & Free Ave.",,  30.318290, -81.572562,,,0,
0789,,"Acme St. & Free. Ave.",,  30.318696, -81.572932,,,0,
0790,,"Acme St. & Alton Ave.",,  30.314527, -81.572293,,,0,
0791,,"Acme St. & Atlantic Blvd.",,  30.313970, -81.572470,,,0,
0794,,"Acme St. & Dandy Ave.",,  30.317131, -81.572764,,,0,
0795,,"Acme St. & Dandy Ave.",,  30.316859, -81.572520,,,0,
0796,,"Atlantic Blvd. & Pecan St.",,  30.313670, -81.575540,,,0,
0797,,"7714 Atlantic Blvd.",,  30.313470, -81.576465,,,0,
0798,,"Atlantic Blvd. & Arlington Rd.",,  30.313460, -81.578840,,,0,
0799,,"Atlantic Blvd. & Arlington Rd.",,  30.313338, -81.578645,,,0,
0800,,"Atlantic Blvd. & Hay Ave.",,  30.313160, -81.582840,,,0,
0801,,"Atlantic Blvd. & Nitram St.",,  30.313270, -81.582080,,,0,
0802,,"Atlantic Blvd. & Johnston Ave.",,  30.313080, -81.585190,,,0,
0803,,"Atlantic Blvd. & Agnue Ave.",,  30.312930, -81.586110,,,0,
0804,,"Atlantic Blvd. & Prado Ave.",,  30.312848, -81.590197,,,0,
0805,,"Atlantic Blvd. & Laurina St.",,  30.312630, -81.590340,,,0,
0807,,"6409 Atlantic Blvd.",,  30.312769, -81.592918,,,0,
0808,,"Atlantic Blvd. & Glynlea Rd.",,  30.312500, -81.592269,,,0,
0809,,"Atlantic Blvd. & River Hills Cir.",,  30.313355, -81.596636,,,0,
0810,,"Atlantic Blvd. & River Hills Dr.",,  30.313280, -81.597010,,,0,
0811,,"Atlantic Blvd. & University Blvd.",,  30.313980, -81.599140,,,0,
0812,,"Atlantic Blvd. & University Blvd.",,  30.313879, -81.599578,,,0,
0813,,"University Blvd. & S. Robbins Cir.",,  30.315110, -81.599140,,,0,
0814,,"University Blvd. & Allen Pl.",,  30.316820, -81.599100,,,0,
0815,,"University Blvd. & N. Robbins Cir.",,  30.318200, -81.598780,,,0,
0816,,"University Blvd. & Saxony Woods Ln.",,  30.318710, -81.598880,,,0,
0817,,"University Blvd. & Atlantic Blvd. sb fs",,  30.313390, -81.599560,,,0,
0818,,"University Blvd. & Atlantic Blvd.",,  30.313420, -81.599360,,,0,
0819,,"University Blvd. & St. Cecilia Rd.",,  30.309300, -81.600140,,,0,
0820,,"University Blvd. & Hinely Ln.",,  30.308770, -81.600040,,,0,
0822,,"University Blvd. & Kellow Rd.",,  30.303470, -81.600810,,,0,
0823,,"University Blvd. & Bartam Rd.",,  30.300730, -81.601360,,,0,
0824,,"University Blvd. & Bartam Rd.",,  30.300170, -81.601260,,,0,
0825,,"University Blvd. & Coronet Ln.",,  30.294940, -81.601920,,,0,
0826,,"University Blvd. & Coronet Ln.",,  30.294370, -81.601700,,,0,
0856,,"Beach Blvd. & Southside Blvd.",,  30.286544, -81.561233,,,0,
0857,,"8840 Beach Blvd. ns eb",,  30.286909, -81.565034,,,0,
0859,,"Beach Blvd. & Killarney Dr.",,  30.287194, -81.567839,,,0,
0862,,"Beach Blvd. & Southside Blvd. fs wb",,  30.287182, -81.564774,,,0,
0865,,"Beach Blvd. & Foster Dr.",,  30.287723, -81.573263,,,0,
0866,,"Beach Blvd. & Foster Dr.",,  30.288113, -81.573511,,,0,
0868,,"Beach Blvd. & Parental Home Rd. eb",,  30.288506, -81.579915,,,0,
0870,,"Beach Blvd. & Parental Home Rd. wb",,  30.288821, -81.579622,,,0,
0871,,"Beach Blvd. & Hogan Rd.",,  30.289500, -81.586040,,,0,
0872,,"Beach Blvd. & Hogan Rd.",,  30.289383, -81.586097,,,0,
0875,,"Beach Blvd. & Dean Rd.",,  30.290222, -81.591578,,,0,
0876,,"Beach Blvd. & Dean Rd.",,  30.290090, -81.591890,,,0,
0880,,"Beach Blvd. & Ryar Rd.",,  30.290782, -81.595460,,,0,
0881,,"Beach Blvd. & Ryar Rd.",,  30.290723, -81.595919,,,0,
0882,,"Beach Blvd. & Hickman Rd.",,  30.291870, -81.599423,,,0,
0883,,"Beach Blvd. & Hickman Rd.",,  30.291832, -81.599809,,,0,
0884,,"University Blvd. & Beach Blvd.",,  30.292380, -81.601920,,,0,
0885,,"Beach & University Blvd. wb fs",,  30.292885, -81.602829,,,0,
0886,,"Beach Blvd. & University Blvd.",,  30.292568, -81.602304,,,0,
0889,,"5631 Beach Blvd.",,  30.293733, -81.605677,,,0,
0890,,"Beach Blvd. & FOP Way",,  30.293750, -81.606300,,,0,
0891,,"Beach Blvd. & Spring Glen Rd.",,  30.294630, -81.609310,,,0,
0892,,"Beach Blvd. & Spring Glen Rd.",,  30.294741, -81.609185,,,0,
0894,,"Beach Blvd. & Art Museum Dr.",,  30.295788, -81.612716,,,0,
0895,,"Beach Blvd. & Art Museum Dr.",,  30.295876, -81.613503,,,0,
0896,,"Atlantic Blvd. & Bartram Rd.",,  30.313210, -81.602590,,,0,
0897,,"Atlantic Blvd. & Bartram Rd.",,  30.312870, -81.603150,,,0,
0898,,"Atlantic Blvd. & Campbell Ave.",,  30.311993, -81.605653,,,0,
0899,,"Atlantic Blvd. & St. Paul Ave.",,  30.311870, -81.605480,,,0,
0900,,"5201 Atlantic Blvd.",,  30.310664, -81.610905,,,0,
0901,,"Atlantic Blvd. & Brookside Cir.",,  30.310377, -81.610616,,,0,
0903,,"Atlantic Blvd. & Empire Pt.",,  30.309720, -81.613820,,,0,
0904,,"Atlantic Blvd. & Empire Pt.",,  30.309265, -81.614369,,,0,
0905,,"Atlantic Blvd. & Glengarry Rd.",,  30.309215, -81.615909,,,0,
0907,,"Atlantic Blvd. & Valencia Dr.",,  30.308612, -81.616529,,,0,
0908,,"Southside Blvd. & Hogan Rd.",,  30.275625, -81.559291,,,0,
0909,,"Southside Blvd. & Hogan Rd.",,  30.275568, -81.559555,,,0,
0915,,"Hogan Rd. & Ruby Dr. W",,  30.274130, -81.558120,,,0,
0931,,"Art Museum Dr. & Keystone Dr.",,  30.298600, -81.612870,,,0,
0936,,"Art Museum Dr. & opp. Carmichael Ave.",,  30.304604, -81.617538,,,0,
0938,,"Art Museum Dr. & Hillcrest Ave.",,  30.301108, -81.613912,,,0,
0941,,"9930 Deercreek Club Blvd.",,  30.190125, -81.553079,,,0,
0944,,"Avenues Mall",,  30.187971, -81.555152,,,0,
0946,,"Avenues Walk Park-n-Ride",,  30.176145, -81.552344,,,0,
0947,,"10130 Philips Hwy",,  30.183401, -81.557045,,,0,
0948,,"Baymeadows Rd. & Southside Blvd.",,  30.218698, -81.552654,,,0,
0951,,"9795 Baymeadows Rd.",,  30.219393, -81.556074,,,0,
0952,,"Old Baymeadows Rd. & Baymeadows Rd.",,  30.220903, -81.557100,,,0,
0953,,"Old Baymeadows Rd. & Southside Blvd. fs wb",,  30.220874, -81.553130,,,0,
0955,,"9983 Old Baymeadows Rd.",,  30.220717, -81.554258,,,0,
0956,,"9770 Old Baymeadows Rd.",,  30.220800, -81.556780,,,0,
0958,,"9535 Baymeadows Rd.",,  30.220990, -81.560300,,,0,
0959,,"9214 Baymeadows Rd.",,  30.220833, -81.562500,,,0,
0960,,"Baymeadows Rd. & Baymeadows Cir.",,  30.221048, -81.563900,,,0,
0961,,"Baymeadows Rd. & Princeton Square Blvd",,  30.220752, -81.564505,,,0,
0962,,"Baymeadows Rd. & Western Way",,  30.221040, -81.567205,,,0,
0963,,"9250 Baymeadows Rd.",,  30.220763, -81.566608,,,0,
0999,,"Bowden Rd. & Richard St.",,  30.264910, -81.612130,,,0,
1002,,"Beach Blvd. & Gibson Rd.",,  30.297120, -81.616840,,,0,
1003,,"4907 Beach Blvd.",,  30.297395, -81.617049,,,0,
1004,,"4600 Beach Blvd.",,  30.298249, -81.619228,,,0,
1007,,"Beach Blvd. & Carmichael Ave.",,  30.300280, -81.623170,,,0,
1009,,"Beach Blvd. & Mayfair Village Rd.",,  30.302535, -81.628023,,,0,
1010,,"Beach Blvd. & Mayfair Village Rd.",,  30.302276, -81.627856,,,0,
1012,,"Beach Blvd. & Carmichael Ave.",,  30.300295, -81.623601,,,0,
1014,,"Beach Blvd. & Camden Ave.",,  30.304000, -81.631243,,,0,
1015,,"Beach Blvd. & Camden Ave.",,  30.303563, -81.630563,,,0,
1017,,"Beach Blvd. & Walton St.",,  30.304670, -81.634000,,,0,
1018,,"Atlantic Blvd. & Spring Park Rd.",,  30.305287, -81.636209,,,0,
1020,,"Atlantic Blvd. & Traymore Rd.",,  30.306147, -81.638723,,,0,
1023,,"Atlantic Blvd. & Kingman St.",,  30.307422, -81.641255,,,0,
1024,,"Atlantic Blvd. & Merrill Ave.",,  30.307372, -81.642660,,,0,
1025,,"Atlantic Blvd. & South Shore Rd.",,  30.308413, -81.644127,,,0,
1072,,"University Blvd. & Spring Park Rd.",,  30.270700, -81.610490,,,0,
1073,,"University Blvd. & Spring Park Rd.",,  30.270700, -81.610210,,,0,
1074,,"University Blvd. & Barnes Rd.",,  30.273377, -81.607743,,,0,
1075,,"University Blvd. & Barnes Rd.",,  30.272155, -81.608727,,,0,
1104,,"University Blvd. & Mt. Carmel Terr",,  30.275573, -81.605194,,,0,
1105,,"University Blvd. & Mt. Carmel Terr.",,  30.274950, -81.605620,,,0,
1106,,"University Blvd. & Terry Rd.",,  30.277219, -81.603018,,,0,
1107,,"University Blvd. & Beney Rd.",,  30.277710, -81.603020,,,0,
1113,,"University Blvd. & Bennett Rd.",,  30.281965, -81.602636,,,0,
1114,,"4140 University Blvd.",,  30.282050, -81.602810,,,0,
1117,,"University Blvd. & Harvin Rd.",,  30.285450, -81.602530,,,0,
1118,,"University Blvd. & opp. Harvin Rd.",,  30.285830, -81.602660,,,0,
1119,,"University Blvd. & Booth Rd.",,  30.287860, -81.602460,,,0,
1120,,"University Blvd. & Booth Rd.",,  30.288070, -81.602310,,,0,
1122,,"University Blvd. & Cruz Rd.",,  30.291320, -81.602160,,,0,
1127,,"Philips Hwy. & Service St.",,  30.303556, -81.644286,,,0,
1128,,"Phillips Hwy. & Jerusalem St.",,  30.301930, -81.643090,,,0,
1129,,"Philips Hwy. & Wishart St.",,  30.299617, -81.642047,,,0,
1130,,"Phillips Hwy. & Martin St.",,  30.300558, -81.642252,,,0,
1131,,"Phillips Hwy. & Loman St.",,  30.298470, -81.641420,,,0,
1132,,"Phillips Hwy. & St. Augustine Rd.",,  30.298145, -81.640885,,,0,
1133,,"Phillips Hwy. & St. Augustine Rd.",,  30.297585, -81.641012,,,0,
1134,,"St. Augustine Rd. & Phillips Hwy.",,  30.297330, -81.641960,,,0,
1135,,"3350 Phillips Hwy.",,  30.294802, -81.639525,,,0,
1139,,"3494 Philips Hwy.",,  30.291255, -81.636808,,,0,
1140,,"3435 Philips Hwy.",,  30.291327, -81.636553,,,0,
1141,,"Phillips Hwy. & Emerson St.",,  30.288970, -81.634480,,,0,
1142,,"Phillips Hwy. & Emerson St.",,  30.289050, -81.634800,,,0,
1144,,"Phillips Hwy. & Emerson St. fs",,  30.286809, -81.633263,,,0,
1147,,"3871 Philips Hwy.",,  30.284883, -81.631271,,,0,
1150,,"Philips Hwy. & Clinton Ave. fs nb",,  30.282545, -81.629725,,,0,
1151,,"Philips Hwy. & Reba Ave. ns sb",,  30.281126, -81.629197,,,0,
1152,,"WalMart 4281 Philips Hwy.",,  30.279132, -81.627220,,,0,
1154,,"4454 Philips Hwy.",,  30.276490, -81.625954,,,0,
1155,,"4459 Philips Hwy.",,  30.276704, -81.625500,,,0,
1156,,"4600 Philips Hwy.",,  30.275048, -81.624911,,,0,
1157,,"4613 Philips Hwy",,  30.275301, -81.624653,,,0,
1158,,"Philips Hwy. & Southgate Dr.",,  30.272854, -81.622832,,,0,
1159,,"4990 Philips Hwy.",,  30.271996, -81.622774,,,0,
1160,,"5001 Philips Hwy.",,  30.271276, -81.621724,,,0,
1161,,"5318 Philips Hwy.",,  30.268975, -81.620704,,,0,
1162,,"Philips Hwy. & University Blvd. nb fs",,  30.267352, -81.618877,,,0,
1167,,"University Blvd. & Richard St. sb fs",,  30.267790, -81.615390,,,0,
1168,,"University Blvd. & Richards St. nb ns",,  30.267531, -81.615343,,,0,
1170,,"5914 Philips Hwy.",,  30.263132, -81.616651,,,0,
1171,,"5935 Philips Hwy.",,  30.262598, -81.615321,,,0,
1172,,"6100 Philips Hwy.",,  30.259638, -81.613480,,,0,
1173,,"6123 Philips Hwy.",,  30.260027, -81.613132,,,0,
1176,,"6390 Philips Hwy.",,  30.255906, -81.610530,,,0,
1177,,"Phillips Hwy. & Bowdendale Ave.",,  30.255564, -81.609438,,,0,
1178,,"Phillips Hwy. & opp Executive Park Ct.",,  30.250530, -81.605790,,,0,
1179,,"Phillips Hwy. & Executive Park Ct.",,  30.249439, -81.604424,,,0,
1183,,"Financial Way & Cypress Plaza Dr nb fs",,  30.240218, -81.593605,,,0,
1184,,"Bonneval Rd. & Financial Way",,  30.243340, -81.593840,,,0,
1185,,"7115 Bonneval Rd.",,  30.244660, -81.596130,,,0,
1186,,"7111 Bonneval Rd.",,  30.244750, -81.595950,,,0,
1191,,"Financial Way & Cypress Plz Dr.",,  30.239810, -81.593790,,,0,
1192,,"8209 Cypress Plz Dr.",,  30.237805, -81.590648,,,0,
1193,,"8068 Cypress Plz Dr.",,  30.238121, -81.591964,,,0,
1194,,"Baymeadows Way W. & Cypress Plz Dr.",,  30.237266, -81.585483,,,0,
1195,,"Baymeadows Way & Baymeadows Way W nb ns",,  30.233927, -81.585438,,,0,
1196,,"Cypress Plz Dr. & Baymeadows Way",,  30.237880, -81.586480,,,0,
1197,,"Baymeadows Way & Baymeadows Way W.",,  30.235080, -81.586120,,,0,
1207,,"Baymeadows Way & Baypine Rd.",,  30.226052, -81.579979,,,0,
1208,,"Baymeadows Way & Baypine Rd.",,  30.226621, -81.580282,,,0,
1210,,"8000 Baymeadows Way",,  30.224073, -81.577437,,,0,
1211,,"8001 Baymeadows Way",,  30.224017, -81.577044,,,0,
1213,,"Baymeadows Way & Baymeadows Rd.",,  30.222761, -81.576678,,,0,
1217,,"8866 Baymeadows Rd.",,  30.220730, -81.573900,,,0,
1222,,"Freedom Commerce Pkwy & Liberty Ridge Dr fs sb",,  30.215026, -81.572521,,,0,
1224,,"8320 Baymeadows Way",,  30.219361, -81.577000,,,0,
1225,,"8555 Baymeadows Way",,  30.219240, -81.577230,,,0,
1226,,"8493 Baymeadows Way",,  30.218180, -81.578220,,,0,
1227,,"8400 Baymeadows Way",,  30.217936, -81.578656,,,0,
1228,,"Baymeadows Way Rd. & Bayberry Rd.",,  30.217730, -81.581810,,,0,
1229,,"8324 Baymeadows Way",,  30.217209, -81.581937,,,0,
1247,,"Phillips Hwy. & Baymeadows Rd. fs sb",,  30.219746, -81.585380,,,0,
1248,,"8384 Philips Hwy.",,  30.218038, -81.583998,,,0,
1250,,"Baymeadows Rd. & Philips Hwy.",,  30.220649, -81.586090,,,0,
1251,,"Philips Hwy. & Baymeadows Rd.",,  30.220850, -81.586606,,,0,
1253,,"8449 Philips Hwy.",,  30.214870, -81.582280,,,0,
1254,,"Philips Hwy. & opp. Freedom Trl.",,  30.214194, -81.582287,,,0,
1255,,"8656 Philips Hwy.",,  30.210090, -81.579810,,,0,
1256,,"8687 Philips Hwy.",,  30.209410, -81.579010,,,0,
1257,,"Philips Hwy. & Sunbeam Rd.",,  30.206184, -81.576634,,,0,
1258,,"8864 Philips Hwy.",,  30.205228, -81.576497,,,0,
1259,,"9016 Philips Hwy.",,  30.203437, -81.575263,,,0,
1260,,"8963 Philips Hwy.",,  30.202457, -81.574050,,,0,
1262,,"9155 Philips Hwy.",,  30.199800, -81.572220,,,0,
1263,,"9158 Philips Hwy.",,  30.199179, -81.572239,,,0,
1264,,"Philips Hwy. & Shad Rd.",,  30.196340, -81.569610,,,0,
1265,,"Philips Hwy. & Shad Rd.",,  30.195740, -81.569390,,,0,
1266,,"9454 Philips Hwy.",,  30.192330, -81.565970,,,0,
1267,,"9525 Philips Hwy.",,  30.192180, -81.565460,,,0,
1268,,"9700 Philips Hwy.",,  30.188650, -81.562240,,,0,
1283,,"St. Augustine Rd. & Crown Point Rd.",,  30.196410, -81.613033,,,0,
1285,,"St. Augustine Rd. & Kori Rd.",,  30.200670, -81.616040,,,0,
1286,,"San Jose Blvd. & Sunbeam Rd.",,  30.204510, -81.617060,,,0,
1297,,"Sunbeam Rd. & Genna Trace Trl.",,  30.205962, -81.604443,,,0,
1298,,"4320 Sunbeam Rd.",,  30.205800, -81.603170,,,0,
1299,,"4083 Sunbeam Rd.",,  30.205820, -81.609880,,,0,
1300,,"4114 Sunbeam Rd.",,  30.205750, -81.609510,,,0,
1301,,"Sunbeam Rd. & Old Sunbeam Rd.",,  30.205650, -81.614380,,,0,
1302,,"3845 Sunbeam Rd.",,  30.205760, -81.615194,,,0,
1303,,"San Jose Blvd. & Sunbeam Rd.",,  30.206660, -81.617130,,,0,
1304,,"San Jose Blvd. & Cardinal Point Dr.",,  30.207670, -81.617410,,,0,
1305,,"9276 San Jose Blvd.",,  30.210040, -81.617580,,,0,
1306,,"9283 San Jose Blvd.",,  30.209940, -81.617240,,,0,
1307,,"9030 San Jose Blvd.",,  30.213940, -81.617720,,,0,
1308,,"9055 San Jose Blvd",,  30.214400, -81.617480,,,0,
1318,,"Baymeadows Rd. & Brierwood Rd.",,  30.220610, -81.597570,,,0,
1322,,"5026 Baymeadows Rd.",,  30.220470, -81.597100,,,0,
1323,,"Baymeadows Rd. & Old Kings Rd.",,  30.220731, -81.593766,,,0,
1325,,"8650 Old Kings Rd.",,  30.222390, -81.592990,,,0,
1326,,"Old Kings Rd. & Baymeadows Rd.",,  30.222100, -81.592790,,,0,
1327,,"Old Kings Rd. & Bradford Rd.",,  30.224330, -81.593520,,,0,
1328,,"Old Kings Rd. & Bradford Rd.",,  30.224090, -81.593240,,,0,
1329,,"Old Kings Rd. & Lincolnshire Rd.",,  30.225720, -81.594530,,,0,
1330,,"8529 Old Kings Rd.",,  30.225590, -81.594270,,,0,
1331,,"Old Kings Rd. & Harrow Rd.",,  30.227280, -81.595450,,,0,
1332,,"Old Kings Rd. & Harrow Rd.",,  30.227500, -81.595760,,,0,
1333,,"Old Kings Rd. & Edgeware Ct.",,  30.228870, -81.596740,,,0,
1334,,"Old Kings Rd. & Warsdale Ct.",,  30.229390, -81.596900,,,0,
1335,,"Old Kings Rd. & Brompton Ct.",,  30.231240, -81.597840,,,0,
1336,,"Old Kings Rd. & Brompton Ct.",,  30.230880, -81.597510,,,0,
1337,,"Old Kings Rd. & Radcliff Ct.",,  30.232189, -81.599731,,,0,
1338,,"Old Kings Rd. & Radcliff Ct.",,  30.232110, -81.599640,,,0,
1339,,"Old Kings Rd. & Cherwell Ln.",,  30.232520, -81.601260,,,0,
1340,,"Old Kings Rd. & San Jose Manor Wy.",,  30.232900, -81.602610,,,0,
1341,,"8153 Old Kings Rd.",,  30.232430, -81.600710,,,0,
1342,,"Old Kings Rd. & Plaza Gate Ln.",,  30.233000, -81.603660,,,0,
1343,,"8075 Old Kings Rd.",,  30.233576, -81.604704,,,0,
1344,,"Old Kings Rd. & Naranja Dr.",,  30.234531, -81.605684,,,0,
1346,,"7801 Old Kings Rd.",,  30.237892, -81.606714,,,0,
1347,,"Old Kings Rd. & Argentine Dr.",,  30.237514, -81.606879,,,0,
1348,,"7715 Old Kings Rd. S",,  30.239980, -81.607930,,,0,
1349,,"Old Kings Rd. & Ferrarra St.",,  30.239776, -81.607999,,,0,
1350,,"7560 Powers Ave.",,  30.243131, -81.609018,,,0,
1351,,"7565 Powers Ave.",,  30.242098, -81.608354,,,0,
1352,,"7440 Powers Ave.",,  30.245796, -81.610701,,,0,
1353,,"7447 Powers Ave.",,  30.245570, -81.610400,,,0,
1354,,"7200 Powers Ave.",,  30.247330, -81.611870,,,0,
1355,,"7277 Powers Ave.",,  30.247417, -81.611667,,,0,
1356,,"7000 Powers Ave.",,  30.251480, -81.614830,,,0,
1357,,"6917 Powers Ave.",,  30.251390, -81.614550,,,0,
1358,,"Toledo Rd. & Powers Ave.",,  30.252895, -81.615897,,,0,
1359,,"Toledo Rd. & Powers Ave.",,  30.252586, -81.616624,,,0,
1360,,"3873 Toledo Rd.",,  30.251661, -81.618160,,,0,
1361,,"3819 Toledo Rd.",,  30.251240, -81.619100,,,0,
1362,,"3904 Toledo Rd.",,  30.249970, -81.621040,,,0,
1364,,"Toledo Rd. & Old Kings Rd.",,  30.249290, -81.622070,,,0,
1365,,"Old Kings Rd. & Galicia Rd.",,  30.251019, -81.624012,,,0,
1366,,"Old Kings Rd. & Galicia Rd.",,  30.250720, -81.623660,,,0,
1368,,"St. Augustine Rd. & Via De La Reine St.",,  30.244580, -81.625700,,,0,
1369,,"St. Augustine Rd. & Via De La Reine St.",,  30.244090, -81.625550,,,0,
1370,,"St. Augustine Rd. & Madrid Ave.",,  30.248240, -81.625900,,,0,
1371,,"7111 St. Augustine Rd.",,  30.248300, -81.625760,,,0,
1373,,"St. Augustine Rd. & Galicia Rd.",,  30.250690, -81.625910,,,0,
1375,,"St. Augustine Rd. & Old Kings Rd.",,  30.253410, -81.626070,,,0,
1376,,"St. Augustine Rd. & Caballero Dr.",,  30.254030, -81.626270,,,0,
1377,,"St. Augustine Rd. & DuPont Ave.",,  30.255750, -81.626310,,,0,
1385,,"Chester Ave & Taylor Residences NB FS",,  30.257877, -81.621724,,,0,
1388,,"Morton St. & Morrow St.",,  30.259420, -81.623100,,,0,
1389,,"Morrow St. & St. Augustine Rd.",,  30.260325, -81.625429,,,0,
1390,,"St. Augustine Rd. & Smithfield Rd.",,  30.258530, -81.626010,,,0,
1391,,"St. Augustine Rd. & Christopher Rd.",,  30.259030, -81.626080,,,0,
1396,,"University Blvd. & Powers Ave.",,  30.262324, -81.624620,,,0,
1397,,"University Blvd. & Powers Ave.",,  30.261944, -81.624751,,,0,
1400,,"University Blvd. & St. Augustine Rd. ns",,  30.261570, -81.625810,,,0,
1401,,"University Blvd. & St. Augustine Rd. fs",,  30.261174, -81.625812,,,0,
1402,,"University Blvd. & St. Augustine Rd.",,  30.260870, -81.627210,,,0,
1403,,"University Blvd. & St. Augustine Rd. fs",,  30.261008, -81.629139,,,0,
1404,,"St. Augustine Rd. & University Blvd.",,  30.262260, -81.628400,,,0,
1405,,"St. Augustine Rd. & University Blvd.",,  30.261580, -81.627130,,,0,
1409,,"University Blvd. & Swanne Rd.",,  30.260820, -81.633480,,,0,
1410,,"University Blvd. & Graywood Rd.",,  30.261030, -81.632820,,,0,
1411,,"University Blvd. & opp. Colgate Rd.",,  30.260990, -81.637260,,,0,
1412,,"University Blvd. & Colgate Rd.",,  30.260780, -81.637060,,,0,
1413,,"University Blvd. & Auburn Rd.",,  30.261070, -81.641570,,,0,
1414,,"University Blvd. & opp. Auburn Rd.",,  30.260830, -81.641830,,,0,
1415,,"University Blvd. & opp. Stanford Rd.",,  30.260820, -81.643980,,,0,
1416,,"5860 St. Augustine Rd.",,  30.263420, -81.629570,,,0,
1418,,"St. Augustine Rd. & Ballard Oaks Rd.",,  30.264540, -81.630500,,,0,
1419,,"St. Augustine Rd. & opp. Bishop Cir.",,  30.266600, -81.632470,,,0,
1420,,"St. Augustine Rd. & Bishop Cir.",,  30.266656, -81.632722,,,0,
1421,,"St. Augustine Rd. & Bishop Cir.",,  30.268462, -81.634517,,,0,
1422,,"St. Augustine Rd. & Rolac Rd.",,  30.268830, -81.634510,,,0,
1423,,"St. Augustine Rd. & Clydo Rd.",,  30.270620, -81.636360,,,0,
1424,,"5050 St. Augustine Rd.",,  30.271010, -81.636890,,,0,
1425,,"4549 St. Augustine Rd.",,  30.273010, -81.638680,,,0,
1426,,"4550 St. Augustine Rd.",,  30.273390, -81.639220,,,0,
1427,,"4333 St. Augustine Rd.",,  30.275510, -81.641100,,,0,
1428,,"St. Augustine Rd. & Nickerson Ln.",,  30.274920, -81.640700,,,0,
1429,,"4194 St. Augustine Rd.",,  30.276930, -81.642680,,,0,
1430,,"St. Augustine Rd. & Jernigan Rd.",,  30.276850, -81.642410,,,0,
1431,,"St. Augustine Rd. & Wright Ave.",,  30.278930, -81.643733,,,0,
1432,,"St. Augustine Rd. & Caljon Rd.",,  30.279360, -81.643610,,,0,
1433,,"St. Augustine Rd. & Sessions Ln.",,  30.281350, -81.643660,,,0,
1434,,"3924 St. Augustine Rd.",,  30.280990, -81.643780,,,0,
1435,,"St. Augustine Rd. & Brewster Rd.",,  30.282440, -81.643800,,,0,
1436,,"St. Augustine Rd. & Emerson St.",,  30.285000, -81.643860,,,0,
1437,,"St. Augustine Rd. & Stubbs Rd.",,  30.285410, -81.643760,,,0,
1438,,"St. Augustine Rd. & Davidson St.",,  30.286650, -81.643930,,,0,
1439,,"St. Augustine Rd. & Sheridan Ln.",,  30.288560, -81.644010,,,0,
1440,,"St. Augustine Rd. & Sheridan Ln.",,  30.288187, -81.643886,,,0,
1441,,"St. Augustine Rd. & Boulder St.",,  30.290210, -81.644090,,,0,
1442,,"St. Augustine Rd. & Ashland St.",,  30.289990, -81.643980,,,0,
1443,,"St. Augustine Rd. & Felch Ave.",,  30.291330, -81.644150,,,0,
1444,,"St. Augustine Rd. & Kingswood Rd.",,  30.291810, -81.644000,,,0,
1445,,"St. Augustine Rd. & Danese Ct.",,  30.292880, -81.643950,,,0,
1446,,"St. Augustine Rd. & Dunsford Rd.",,  30.293900, -81.643800,,,0,
1447,,"St. Augustine Rd. & Dunsford Terr.",,  30.293460, -81.643750,,,0,
1448,,"St. Augustine Rd. & Lorimier Rd.",,  30.295470, -81.643340,,,0,
1449,,"St. Augustine Rd. & Lorimier Rd.",,  30.295670, -81.643150,,,0,
1451,,"Marbon Rd & SR13",,  30.147669, -81.631622,,,0,
1452,,"San Jose Blvd. & Orange Picker Rd.",,  30.150270, -81.632460,,,0,
1454,,"11925 San Jose Blvd.",,  30.154710, -81.632510,,,0,
1455,,"11940 San Jose Blvd.",,  30.153830, -81.632770,,,0,
1456,,"11755 San Jose Blvd.",,  30.158680, -81.632570,,,0,
1457,,"11768 San Jose Blvd.",,  30.158290, -81.632870,,,0,
1458,,"San Jose Blvd. & Loretto Rd.",,  30.160540, -81.632550,,,0,
1459,,"San Jose Blvd. & Loretta Rd.",,  30.161120, -81.632810,,,0,
1460,,"San Jose Blvd. & Addie Ln.",,  30.163350, -81.632460,,,0,
1461,,"San Jose Blvd. & Mandarin Rd.",,  30.167500, -81.631660,,,0,
1462,,"San Jose Blvd. & opp. Mandarin Rd.",,  30.166950, -81.631700,,,0,
1463,,"11247 San Jose Blvd.",,  30.170350, -81.629480,,,0,
1464,,"11147 San Jose Blvd.",,  30.172470, -81.628700,,,0,
1465,,"11150 San Jose Blvd.",,  30.172950, -81.628800,,,0,
1466,,"San Jose Blvd. & Claire Ln.",,  30.175620, -81.627990,,,0,
1467,,"San Jose Blvd. & Claire Ln. nb",,  30.175160, -81.627850,,,0,
1468,,"San Jose Blvd. & Venture Pl.",,  30.186770, -81.628150,,,0,
1469,,"San Jose Blvd. & Hartley Rd.",,  30.186340, -81.627850,,,0,
1470,,"San Jose Blvd. & Big Tree Ln.",,  30.189530, -81.626970,,,0,
1471,,"10200 San Jose Blvd.",,  30.192310, -81.625550,,,0,
1472,,"10235 San Jose Blvd.",,  30.191270, -81.625840,,,0,
1473,,"10127 San Jose Blvd.",,  30.194020, -81.623720,,,0,
1474,,"10100 San Jose Blvd.",,  30.194610, -81.623780,,,0,
1475,,"9962 San Jose Blvd.",,  30.197030, -81.621910,,,0,
1476,,"San Jose Blvd. & Crown Point Rd.",,  30.196070, -81.622150,,,0,
1477,,"San Jose Blvd. & Pall Mall Dr.",,  30.198560, -81.620740,,,0,
1478,,"9775 San Jose Blvd.",,  30.199850, -81.619210,,,0,
1479,,"9620 San Jose Blvd.",,  30.202010, -81.617990,,,0,
1480,,"San Jose Blvd. & Holly Grove Ave.",,  30.217970, -81.617290,,,0,
1481,,"San Jose Blvd. & San Jose Park Dr.",,  30.218570, -81.616900,,,0,
1482,,"San Jose Blvd. & Rustic Ln.",,  30.220020, -81.616600,,,0,
1483,,"San Jose Blvd. & River Hall Dr.",,  30.221770, -81.615930,,,0,
1484,,"8701 San Jose Blvd.",,  30.221680, -81.615750,,,0,
1485,,"8569 San Jose Blvd.",,  30.223720, -81.615490,,,0,
1486,,"San Jose Blvd. & Cathedral Oaks Pl.",,  30.223730, -81.615700,,,0,
1487,,"San Jose Blvd. & San Clerc Rd.",,  30.225740, -81.615940,,,0,
1488,,"San Jose Blvd. & Hilliard Rd.",,  30.225570, -81.616120,,,0,
1489,,"San Jose Blvd. & Point Pleasant Rd.",,  30.228720, -81.616540,,,0,
1490,,"San Jose Blvd. & Point Pleasant Rd.",,  30.228690, -81.616700,,,0,
1491,,"San Jose Blvd. & El Ciento Blvd.",,  30.231600, -81.616960,,,0,
1492,,"San Jose Blvd. & Jose Ter.",,  30.231040, -81.617100,,,0,
1493,,"San Jose Blvd. & Airlie Ln.",,  30.234660, -81.619250,,,0,
1494,,"8037 San Jose Blvd.",,  30.233900, -81.618280,,,0,
1495,,"7821 San Jose Blvd.",,  30.236580, -81.620590,,,0,
1497,,"San Jose Blvd. & Miller Oaks Dr.",,  30.237480, -81.621710,,,0,
1498,,"7701 San Jose Blvd.",,  30.238830, -81.622570,,,0,
1499,,"San Jose Blvd. & Cheryl Dr.",,  30.238760, -81.622810,,,0,
1500,,"7525 San Jose Blvd.",,  30.241250, -81.624600,,,0,
1501,,"San Jose Blvd. & LaRida Ln.",,  30.241390, -81.625080,,,0,
1520,,"San Jose Blvd. & opp. Cornell Rd.",,  30.263810, -81.646880,,,0,
1521,,"San Jose Blvd. & Cornell Rd.",,  30.263500, -81.646440,,,0,
1522,,"San Jose Blvd. & Flanders Rd.",,  30.265430, -81.647250,,,0,
1523,,"San Jose Blvd. & Arcadia Dr.",,  30.267000, -81.647880,,,0,
1524,,"San Jose Blvd. & Heritage Manor Dr.",,  30.266810, -81.648140,,,0,
1525,,"San Jose Blvd. & opp. Riverburch Ln.",,  30.269650, -81.648210,,,0,
1526,,"San Jose Blvd. & San Amaro Rd.",,  30.269930, -81.648470,,,0,
1527,,"San Jose Blvd. & Peachtree Cir. S.",,  30.272560, -81.649100,,,0,
1528,,"San Jose Blvd. & Peachtree Cir. N.",,  30.276980, -81.650300,,,0,
1529,,"San Jose Blvd. & Peachtree Cir. N.",,  30.277100, -81.650500,,,0,
1530,,"4445 San Jose Blvd.",,  30.275170, -81.650000,,,0,
1531,,"4446 San Jose Blvd.",,  30.274900, -81.650300,,,0,
1532,,"San Jose Blvd. & London Rd.",,  30.280550, -81.651000,,,0,
1533,,"4021 San Jose Blvd.",,  30.279950, -81.650700,,,0,
1534,,"3933 San Jose Blvd.",,  30.282120, -81.650900,,,0,
1535,,"3930 San Jose Blvd.",,  30.282670, -81.651200,,,0,
1536,,"Hendricks Ave. & Emerson St.",,  30.284390, -81.650800,,,0,
1539,,"Hendricks Ave. & Pinetree Rd.",,  30.287190, -81.650100,,,0,
1540,,"Hendricks Ave. & Parkwood St.",,  30.287280, -81.649900,,,0,
1541,,"Hendricks Ave. & Felch Ave.",,  30.291727, -81.648324,,,0,
1542,,"Hendricks Ave. & Felch Ave.",,  30.292055, -81.648565,,,0,
1543,,"3400 Hendricks Ave.",,  30.290720, -81.648800,,,0,
1544,,"3407 Hendricks Ave.",,  30.289638, -81.648821,,,0,
1545,,"Hendricks Ave. & Dunsford Rd.",,  30.294240, -81.647800,,,0,
1546,,"Hendricks Ave. & Dunsford Rd.",,  30.294400, -81.648000,,,0,
1548,,"Hendricks Ave. & Lorimer Rd.",,  30.296556, -81.647524,,,0,
1549,,"Hendricks Ave. & River Oaks Rd.",,  30.298450, -81.648690,,,0,
1550,,"Hendricks Ave. & Pineridge Rd.",,  30.298850, -81.648710,,,0,
1551,,"Hendricks Ave. & Marco Pl.",,  30.300800, -81.650070,,,0,
1552,,"Hendricks Ave. & Marco Pl.",,  30.301030, -81.650550,,,0,
1555,,"Atlantic Blvd. & Kings Ave.",,  30.307580, -81.647480,,,0,
1556,,"Atlantic Blvd. & Perry Pl.",,  30.307030, -81.649030,,,0,
1557,,"Atlantic Blvd. & Arcadia Pl.",,  30.305836, -81.651101,,,0,
1559,,"Atlantic Blvd. & Thacker Ave.",,  30.305472, -81.652470,,,0,
1560,,"Hendricks Ave. & Landon Ave.",,  30.307229, -81.654078,,,0,
1561,,"Hendricks Ave. & Landon Ave.",,  30.307478, -81.654390,,,0,
1568,,"Kings Ave. & opp. Gary St.",,  30.313633, -81.653652,,,0,
1601,,"San Marco Blvd. & Balis Pl.",,  30.303950, -81.653780,,,0,
1602,,"San Marco Blvd. & Balis Pl.",,  30.303980, -81.654300,,,0,
1603,,"San Marco Blvd. & Naldo Ave.",,  30.304287, -81.655960,,,0,
1605,,"San Marco Blvd. & Largo Rd.",,  30.304534, -81.657704,,,0,
1606,,"867 San Marco Blvd. & opp. Largo Rd.",,  30.304678, -81.657453,,,0,
1607,,"San Marco Blvd. & Landon Ave.",,  30.305410, -81.659300,,,0,
1608,,"San Marco Blvd. & Landon Ave.",,  30.305120, -81.658840,,,0,
1609,,"San Marco Blvd. & LaSalle St.",,  30.309020, -81.660610,,,0,
1610,,"San Marco Blvd. & LaSalle St.",,  30.308690, -81.660440,,,0,
1612,,"San Marco Blvd. & Cedar St.",,  30.310800, -81.660500,,,0,
1613,,"San Marco Blvd. & Phillips St.",,  30.310572, -81.660600,,,0,
1615,,"San Marco Blvd. & Childrens Way.",,  30.312470, -81.660600,,,0,
1616,,"San Marco Blvd. & Nira St.",,  30.311870, -81.660510,,,0,
1617,,"Cedar St. & Palm St.",,  30.310589, -81.662011,,,0,
1618,,"Cedar St. & San Marco Blvd.",,  30.310420, -81.660730,,,0,
1619,,"Childrens Way & Le Baron Ave.",,  30.312201, -81.663333,,,0,
1620,,"Le Baron Ave. & Childrens Way",,  30.311912, -81.663378,,,0,
1621,,"Le Baron Ave. & Cedars St.",,  30.310610, -81.663518,,,0,
1626,,"A. Philip Randolph Blvd. & Adams St.",,  30.324788, -81.644100,,,0,
1627,,"A. Philip Randolph Blvd. & Adams St.",,  30.324260, -81.644100,,,0,
1628,,"A. Philip Randolph Blvd. & Duval St.",,  30.326240, -81.643453,,,0,
1629,,"A. Philip Randolph Blvd. & Duval St.",,  30.326486, -81.643482,,,0,
1635,,"Bay St. & Liberty St.",,  30.325070, -81.653020,,,0,
1637,,"Bay St. & Market St",,  30.325441, -81.654164,,,0,
1638,,"Bay St. & Market St.",,  30.325370, -81.654510,,,0,
1642,,"Bay St. & Newnan St.",,  30.325703, -81.655347,,,0,
1644,,"Bay St. & Main St.",,  30.326262, -81.657708,,,0,
1650,,"Pearl St. & Water St.",,  30.325999, -81.663426,,,0,
1651,,"Water St. & CSX Dr.",,  30.326034, -81.664794,,,0,
1652,,"Pearl St. & Bay St.",,  30.327190, -81.663020,,,0,
1653,,"Water St. & Jefferson St.",,  30.326850, -81.667420,,,0,
1654,,"Water St. & Jefferson St.",,  30.327563, -81.669514,,,0,
1659,,"JRTC at LaVilla",,  30.329000, -81.672110,,,0,
1662,,"Bay St. & Clay St.",,  30.327413, -81.664083,,,0,
1664,,"Bay St. & Julia St.",,  30.327147, -81.661677,,,0,
1665,,"Bay St. & Laura St.",,  30.326658, -81.659615,,,0,
1666,,"Forsyth St. & Clay St.",,  30.328038, -81.663798,,,0,
1667,,"Forsyth St. & Julia St.",,  30.327870, -81.661900,,,0,
1670,,"Forsyth St. & Laura St.",,  30.327191, -81.658917,,,0,
1671,,"Museum Cir. & Main St. eb",,  30.318400, -81.660053,,,0,
1672,,"Kings Ave. Station",,  30.315519, -81.653289,,,0,
1675,,"Riverplace Blvd. & Flagler Ave. eb",,  30.318409, -81.656099,,,0,
1676,,"1031 San Marco Blvd.",,  30.315140, -81.660500,,,0,
1680,,"San Marco Blvd. & Prudential Dr.",,  30.316600, -81.660410,,,0,
1693,,"Forsyth St. & Ocean St.",,  30.326773, -81.657011,,,0,
1695,,"Newnan St. & Forsyth St.",,  30.326700, -81.655300,,,0,
1697,,"Newnan St. & Adams St.",,  30.327050, -81.655120,,,0,
1698,,"Forsyth St. & Market St.",,  30.326148, -81.654316,,,0,
1705,,"Broad St. & Monroe St. nb",,  30.329614, -81.664738,,,0,
1706,,"Jefferson St. & Adams St. sb",,  30.330135, -81.665968,,,0,
1713,,"Newnan St. & Monroe St.",,  30.328061, -81.654925,,,0,
1714,,"Newnan St. & E Monroe St. fs",,  30.328191, -81.654757,,,0,
1724,,"Broad St. & Ashley St. nb",,  30.332587, -81.663849,,,0,
1730,,"Newnan St. & Ashley St.",,  30.330604, -81.654075,,,0,
1731,,"Newnan St. & Ashley St.",,  30.330490, -81.654200,,,0,
1735,,"Market St. & Union St.",,  30.331310, -81.652570,,,0,
1736,,"Market St. & Beaver St.",,  30.330970, -81.652780,,,0,
1741,,"Beaver St. & Ocean St.",,  30.331240, -81.655430,,,0,
1742,,"Beaver St. & Ocean St.",,  30.331272, -81.655040,,,0,
1746,,"Beaver St. & Clay St.",,  30.332816, -81.662186,,,0,
1747,,"Beaver St. & Clay St.",,  30.332830, -81.662900,,,0,
1749,,"Beaver St. & Jefferson St.",,  30.333340, -81.664618,,,0,
1751,,"Jefferson St. & Beaver St. sb",,  30.332840, -81.665138,,,0,
1753,,"Beaver St. & Davis St.",,  30.333920, -81.667300,,,0,
1754,,"Beaver St. & Davis St.",,  30.333860, -81.667700,,,0,
1758,,"State St. & Davis St. ns",,  30.335670, -81.666770,,,0,
1760,,"State St. & Jefferson St. ns",,  30.334830, -81.664250,,,0,
1763,,"Broad St. & State St. nb fs",,  30.336436, -81.662746,,,0,
1764,,"Broad St. & State St. sb ns",,  30.335817, -81.663079,,,0,
1768,,"Rosa Parks Transit Station",,  30.333289, -81.658710,,,0,
1769,,"Market St. & State St.",,  30.332370, -81.652380,,,0,
1772,,"Riverside Ave. & Stonewall St.",,  30.323555, -81.670811,,,0,
1773,,"Riverside Ave. & Stonewall St.",,  30.323140, -81.670950,,,0,
1775,,"Riverside Ave. & Jackson St.",,  30.322440, -81.672100,,,0,
1777,,"Riverside Ave. & Edison Ave.",,  30.320140, -81.674780,,,0,
1778,,"Riverside Ave. & Rosselle Ave.",,  30.319060, -81.675500,,,0,
1779,,"Riverside Ave. & Rosselle Ave.",,  30.318550, -81.675540,,,0,
1780,,"Riverside Ave. & Peninsular Pl.",,  30.317520, -81.676180,,,0,
1783,,"Riverside Ave. & Riverside Park Pl.",,  30.315580, -81.676930,,,0,
1784,,"Riverside Ave. & Post St.",,  30.314250, -81.677740,,,0,
1785,,"Riverside Ave. & Post St.",,  30.314010, -81.677660,,,0,
1786,,"Riverside Ave. & Lomax St.",,  30.312980, -81.678250,,,0,
1787,,"Riverside Ave. & Lomax St.",,  30.312600, -81.678350,,,0,
1788,,"Riverside Ave. & Margaret St.",,  30.311285, -81.680429,,,0,
1789,,"Riverside Ave. & Margaret St.",,  30.311150, -81.680700,,,0,
1791,,"Riverside Ave. & Goodwin St.",,  30.310950, -81.682100,,,0,
1792,,"Riverside Ave. & Goodwin St.",,  30.310700, -81.682493,,,0,
1793,,"Riverside Ave. & Copeland St.",,  30.310470, -81.683980,,,0,
1794,,"Riverside Ave. & Copeland St.",,  30.310360, -81.684250,,,0,
1795,,"Riverside Ave. & Osceola St.",,  30.310110, -81.685750,,,0,
1796,,"Riverside Ave. & Osceola St.",,  30.309960, -81.686070,,,0,
1797,,"Riverside Ave. & Stockton St.",,  30.309750, -81.687530,,,0,
1798,,"Riverside Ave. & Stockton St.",,  30.309550, -81.687900,,,0,
1799,,"Riverside Ave. & Barrs St.",,  30.309330, -81.689320,,,0,
1800,,"Riverside Ave. & Shircliff St.",,  30.309010, -81.690210,,,0,
1802,,"Park St. & Stonewall St.",,  30.325330, -81.672600,,,0,
1803,,"Park St. & Jackson St.",,  30.324610, -81.673780,,,0,
1804,,"Park St. & Jackson St.",,  30.324820, -81.673630,,,0,
1805,,"Park St. & Price St.",,  30.323007, -81.676331,,,0,
1806,,"Park St. & Price St.",,  30.323300, -81.676110,,,0,
1808,,"Park St. & Forest St.",,  30.322730, -81.677010,,,0,
1809,,"Park St. & Edison Ave.",,  30.321660, -81.677720,,,0,
1810,,"Park St. & Edison Ave.",,  30.321330, -81.677690,,,0,
1811,,"Park St. & Rosselle St.",,  30.319990, -81.678470,,,0,
1812,,"Park St. & Rosselle St.",,  30.319540, -81.678540,,,0,
1813,,"Park St. & Riverside Park Pl.",,  30.317070, -81.679810,,,0,
1814,,"Park St. & Riverside Park Pl.",,  30.316624, -81.679868,,,0,
1815,,"Park St. & Post St.",,  30.315670, -81.680420,,,0,
1821,,"Park St. & Margaret St.",,  30.313730, -81.681500,,,0,
1836,,"Park St. & Goodwin St.",,  30.313530, -81.682900,,,0,
1840,,"College St. & Copeland St. - No Bus Stop Sign",,  30.315750, -81.685610,,,0,
1852,,"College St. & Stockton St. - No Bus Stop Sign",,  30.314980, -81.689110,,,0,
1857,,"Park St. & Stockton St.",,  30.312170, -81.688600,,,0,
1858,,"Park St. & Stockton St.",,  30.312380, -81.688100,,,0,
1869,,"College St. & Acosta St. - No Bus Stop Sign",,  30.314250, -81.692980,,,0,
1870,,"College St. & King St. ns wb",,  30.314200, -81.696100,,,0,
1872,,"2610 Park St.",,  30.311540, -81.692000,,,0,
1873,,"2660 Park St.",,  30.311320, -81.692200,,,0,
1879,,"King St. & St. Johns Ave.",,  30.307570, -81.691573,,,0,
1891,,"College St. & James St. fs wb",,  30.314168, -81.698859,,,0,
1894,,"St. Johns Ave. & James St.",,  30.306620, -81.692790,,,0,
1895,,"St. Johns Ave. & Powell Pl.",,  30.306719, -81.692407,,,0,
1896,,"Post St. & Willow Branch Ave.",,  30.313167, -81.703419,,,0,
1898,,"Forest St. & Myrtle Ave.",,  30.322906, -81.678201,,,0,
1900,,"Park St. & Cherry St.",,  30.307700, -81.697390,,,0,
1901,,"Park St. & Cherry St.",,  30.307470, -81.697540,,,0,
1904,,"Park St. & McDuff Ave.",,  30.305200, -81.699830,,,0,
1905,,"Park St. & McDuff Ave.",,  30.304880, -81.699960,,,0,
1906,,"Park St. & Belvedere Ave.",,  30.302982, -81.703311,,,0,
1911,,"Park St. & Belvedere Ave.",,  30.303260, -81.702900,,,0,
1914,,"St. Johns Ave. & Mallory St.",,  30.304380, -81.694930,,,0,
1915,,"St. Johns Ave. & Mallory St.",,  30.304329, -81.694788,,,0,
1916,,"St. Johns Ave. & Willow Branch Terr.",,  30.303515, -81.695580,,,0,
1917,,"St. Johns Ave. & Mc Duff Ave.",,  30.302780, -81.696400,,,0,
1919,,"St. Johns Ave. & Aberdeen St.",,  30.301250, -81.698200,,,0,
1920,,"St. Johns Ave. & Avondale Ave.",,  30.299940, -81.700000,,,0,
1921,,"St. Johns Ave. & Avondale Ave.",,  30.299960, -81.699800,,,0,
1922,,"St. Johns Ave. & Edgewood Ave.",,  30.298262, -81.702057,,,0,
1923,,"St. Johns Ave. & Edgewood Ave.",,  30.298720, -81.701760,,,0,
1924,,"St. Johns Ave. & Talbot Ave.",,  30.297430, -81.702974,,,0,
1925,,"3571 St. Johns Ave.",,  30.296656, -81.704060,,,0,
1927,,"St. Johns Ave. & Dancy St.",,  30.295390, -81.705300,,,0,
1928,,"St. Johns Ave. & Dancy St.",,  30.295635, -81.705187,,,0,
1929,,"St. Johns Ave. & Van Wert Ave.",,  30.294200, -81.706600,,,0,
1930,,"3712 St. Johns Ave.",,  30.294110, -81.706900,,,0,
1931,,"St. Johns Ave. & Glendale Rd.",,  30.291590, -81.710200,,,0,
1932,,"St. Johns Ave. & Canterbury St.",,  30.291081, -81.710675,,,0,
1933,,"St. Johns Ave. & Riverside Ave.",,  30.290670, -81.711900,,,0,
1934,,"St. Johns Ave. & Oak St.",,  30.291029, -81.712757,,,0,
1951,,"Herschel St. & St. Johns Ave.",,  30.288560, -81.713340,,,0,
1952,,"Herschel St. & St. Johns Ave.",,  30.288660, -81.713480,,,0,
1953,,"Herschel St. & Irvington Ave.",,  30.285980, -81.713500,,,0,
1954,,"4197 Herschel St.",,  30.285920, -81.713370,,,0,
1955,,"Herschel St. & Marquette Ave.",,  30.284590, -81.713400,,,0,
1956,,"Herschel St. & Marquette Ave.",,  30.284334, -81.713569,,,0,
1957,,"Herschel St. & Lexington Ave.",,  30.283070, -81.713460,,,0,
1958,,"Herschel St. & Lexington Ave.",,  30.282950, -81.713550,,,0,
1964,,"San Juan Ave. & Euclid St.",,  30.282160, -81.715720,,,0,
1965,,"San Juan Ave. & Euclid St.",,  30.282260, -81.715420,,,0,
1967,,"San Juan Ave. & Fair St.",,  30.282250, -81.717570,,,0,
1969,,"San Juan Ave. & Roosevelt Blvd.",,  30.282130, -81.719000,,,0,
1970,,"4507 Roosevelt Blvd.",,  30.279358, -81.720014,,,0,
1971,,"4470 Rossevelt Blvd.",,  30.278930, -81.720360,,,0,
1972,,"Roosevelt Blvd. & San Juan Ave.",,  30.280892, -81.720025,,,0,
1973,,"Roosevelt Blvd. & San Juan Ave.",,  30.281640, -81.720380,,,0,
1975,,"Roosevelt Blvd. & St. Johns Ave.",,  30.289122, -81.720131,,,0,
1976,,"Roosevelt Blvd. & St. Johns Ave.",,  30.288990, -81.720500,,,0,
1980,,"Park St. & Pinegrove Ave.",,  30.297857, -81.714745,,,0,
1981,,"Park St. & Pinegrove Ave.",,  30.298050, -81.714470,,,0,
1984,,"Park St. & Dancy St.",,  30.299990, -81.710990,,,0,
1986,,"Park St. & Ingleside Ave.",,  30.300780, -81.709450,,,0,
1990,,"Park St. & Edgewood Ave.",,  30.302140, -81.706100,,,0,
1991,,"Park St. & Edgewood Ave.",,  30.301920, -81.706500,,,0,
2024,,"Roosevelt Blvd. & Timuquana Rd.",,  30.247060, -81.697770,,,0,
2025,,"Roosevelt Blvd. & Timuquana Rd.",,  30.247170, -81.697490,,,0,
2026,,"5648 Roosevelt Blvd.",,  30.245440, -81.697410,,,0,
2027,,"5647 Roosevelt Blvd.",,  30.245330, -81.697060,,,0,
2028,,"5956 Roosevelt Blvd.",,  30.242050, -81.696640,,,0,
2029,,"6017 Roosevelt Blvd.",,  30.240750, -81.696280,,,0,
2030,,"5068 Roosevelt Blvd.",,  30.239850, -81.696640,,,0,
2031,,"6073 Roosevelt Blvd.",,  30.239500, -81.696400,,,0,
2032,,"6277 Roosevelt Blvd.",,  30.237020, -81.697090,,,0,
2033,,"6372 Roosevelt Blvd.",,  30.236070, -81.697700,,,0,
2034,,"Roosevelt Blvd. & 120th St.",,  30.233370, -81.698520,,,0,
2036,,"Roosevelt Blvd. & Yorktown Ave.",,  30.226630, -81.700100,,,0,
2038,,"Saratoga Ave. & Gillis St.",,  30.223930, -81.689350,,,0,
2041,,"Saratoga Ave. & Biscayne St.",,  30.223830, -81.696170,,,0,
2042,,"Saratoga Ave. & Biscayne St.",,  30.223910, -81.695570,,,0,
2045,,"Saratoga Ave. & Gillis St.",,  30.223860, -81.689690,,,0,
2047,,"Allegheny Rd & Yorktown Ave",,  30.224883, -81.697713,,,0,
2048,,"Saratoga Ave. & Mustin Rd.",,  30.223910, -81.683690,,,0,
2049,,"Saratoga Ave. & Ajax St.",,  30.224097, -81.679133,,,0,
2050,,"Saratoga Ave. & Ajax St.",,  30.223887, -81.679128,,,0,
2051,,"Saratoga Ave. & Ranger St.",,  30.223930, -81.674069,,,0,
2052,,"Saratoga Ave. & Ranger St.",,  30.224090, -81.674060,,,0,
2054,,"Wasp St. & Enterprise Ave.",,  30.222681, -81.672311,,,0,
2055,,"Saratoga Ave. & Mustin Rd.",,  30.223980, -81.684110,,,0,
2056,,"Mustin Rd. & Enterprise Ave.",,  30.221975, -81.683476,,,0,
2058,,"7029 Mustin Rd.",,  30.218020, -81.682390,,,0,
2059,,"7029 Mustin Rd.",,  30.218200, -81.682680,,,0,
2060,,"7252 Mustin Rd.",,  30.214840, -81.680700,,,0,
2061,,"Mustin Rd. & Brick Rd.",,  30.214961, -81.680590,,,0,
2064,,"Mustin Rd. & Neff Cir.",,  30.210760, -81.681570,,,0,
2065,,"Mustin Rd. & Neff Cir.",,  30.210820, -81.681700,,,0,
2066,,"Miles St. & Broccolo St.",,  30.209327, -81.683781,,,0,
2067,,"N.A.S. Hospital",,  30.207636, -81.682901,,,0,
2069,,"4541 Timuquana Rd.",,  30.247763, -81.699098,,,0,
2070,,"Timuquana Rd. & Stark Rd.",,  30.247690, -81.703530,,,0,
2071,,"Timuquana Rd. & Starke Rd.",,  30.247459, -81.704050,,,0,
2072,,"Timuquana Rd. & Twining Rd.",,  30.247479, -81.700290,,,0,
2074,,"5435 Roosevelt Blvd.",,  30.250360, -81.698200,,,0,
2076,,"Roosevelt Blvd. & Long Bow Ln.",,  30.253059, -81.698902,,,0,
2077,,"Roosevelt Blvd. & Long Bow Ln.",,  30.252604, -81.699099,,,0,
2078,,"Roosevelt Blvd. & Robert D Gorden Rd",,  30.260043, -81.701096,,,0,
2079,,"5104 Roosevelt Blvd.",,  30.260200, -81.701600,,,0,
2080,,"Roosevelt Blvd. & Yacht Club Rd.",,  30.256380, -81.699728,,,0,
2081,,"Roosevelt Blvd. & Yacht Club Rd.",,  30.256778, -81.700108,,,0,
2084,,"Roosevelt Blvd. & Verona Ave.",,  30.265929, -81.707553,,,0,
2085,,"Roosevelt Blvd. & Verona Ave.",,  30.265710, -81.707700,,,0,
2086,,"Roosevelt Blvd. & Longfellow St.",,  30.268550, -81.710500,,,0,
2087,,"Roosevelt Blvd. & Longfellow St.",,  30.268570, -81.711000,,,0,
2088,,"Roosevelt Blvd. & Ortega Forest Dr.",,  30.271349, -81.714137,,,0,
2089,,"Roosevelt Blvd. & Shawnee St.",,  30.270980, -81.713200,,,0,
2091,,"F.S.C.J. Kent Campus",,  30.297627, -81.718983,,,0,
2120,,"Post St. & McDuff Ave.",,  30.313330, -81.705920,,,0,
2121,,"  McDuff Ave. & Plum",,  30.314612, -81.705268,,,0,
2124,,"Post St. & Day St.",,  30.313189, -81.709719,,,0,
2125,,"Post St. & Day St.",,  30.313320, -81.709310,,,0,
2128,,"Post St. & Nelson St.",,  30.313180, -81.714050,,,0,
2129,,"Post St. & Nelson St.",,  30.313250, -81.713560,,,0,
2130,,"Post St. & Cypress St.",,  30.312720, -81.717720,,,0,
2131,,"Post St. & Edgewood Ave.",,  30.312540, -81.718020,,,0,
2132,,"Post St. & Talbot Ave.",,  30.311460, -81.719200,,,0,
2133,,"Post St. & Talbot Ave.",,  30.311660, -81.719090,,,0,
2134,,"Post St. & Wolfe St.",,  30.309960, -81.720890,,,0,
2135,,"Post St. & Wolfe St.",,  30.310190, -81.720770,,,0,
2136,,"Post St. & Hamilton St.",,  30.308940, -81.722260,,,0,
2137,,"Post St. & Hamilton St.",,  30.309190, -81.721930,,,0,
2146,,"Lenox Ave. & Luna St.",,  30.319789, -81.722028,,,0,
2147,,"Lenox Ave. & Arnau Terr.",,  30.319850, -81.722200,,,0,
2148,,"Lenox Ave. & Edgewood Ave.",,  30.318390, -81.724100,,,0,
2149,,"Lenox Ave. & Edgewood Ave.",,  30.317910, -81.724840,,,0,
2150,,"4540 Lenox Ave.",,  30.318650, -81.723500,,,0,
2155,,"Lenox Ave. & Dellwood Ave.",,  30.317310, -81.726400,,,0,
2156,,"Lenox Ave. & Murray Dr.",,  30.316330, -81.728200,,,0,
2158,,"Lenox Ave. & Royal Ave.",,  30.315780, -81.729460,,,0,
2161,,"Cassat Ave. & Lenox Ave.",,  30.315800, -81.730630,,,0,
2162,,"Cassat Ave. & College St.",,  30.314203, -81.730786,,,0,
2163,,"Cassat Ave. & Sappho Ave.",,  30.312910, -81.730600,,,0,
2164,,"Cassat Ave. & opp. French St.",,  30.311159, -81.730817,,,0,
2165,,"Cassat Ave. & French St.",,  30.310560, -81.730486,,,0,
2166,,"Cassat Ave. & Astral St.",,  30.308186, -81.730688,,,0,
2168,,"Cassat Ave. & Kingsbury St.",,  30.306262, -81.730528,,,0,
2173,,"Post St. & Murray Dr.",,  30.309060, -81.726530,,,0,
2174,,"Post St. & Murray Dr.",,  30.309110, -81.726260,,,0,
2175,,"Post St. & Cassat Ave.",,  30.309066, -81.730066,,,0,
2176,,"Normandy Blvd. & Mikael Ave.",,  30.309326, -81.731434,,,0,
2177,,"Normandy Blvd. & Truman Ave.",,  30.309054, -81.732321,,,0,
2178,,"Normandy Blvd. & opp. Burns Ave.",,  30.309270, -81.735050,,,0,
2179,,"Normandy Blvd. & Burns Ave.",,  30.309027, -81.734831,,,0,
2181,,"Normandy Blvd. & Vincent St.",,  30.308971, -81.737422,,,0,
2182,,"Normandy Blvd. & Lake Shore Blvd.",,  30.309090, -81.739050,,,0,
2200,,"Cassat & Plymouth",,  30.304037, -81.730629,,,0,
2201,,"Cassat & Catherine Ter.",,  30.302282, -81.730398,,,0,
2203,,"Cassat Ave. & Hollycrest Dr.",,  30.300471, -81.730575,,,0,
2206,,"Cassat Ave. & Quan Dr.",,  30.296012, -81.730516,,,0,
2208,,"Cassat Ave. & Park St.",,  30.291730, -81.730300,,,0,
2209,,"Cassat Ave. & Park St.",,  30.293186, -81.730485,,,0,
2210,,"Cassat Ave. & Camille Ave.",,  30.286062, -81.730424,,,0,
2211,,"Cassat Ave. & Cardinal Blvd.",,  30.286660, -81.730200,,,0,
2212,,"Cassat Ave. & Shelby Ave.",,  30.289740, -81.730500,,,0,
2213,,"Cassat Ave. & St. Johns Ave.",,  30.288800, -81.730200,,,0,
2214,,"Cassat Ave. & Shirley Ave.",,  30.284180, -81.730500,,,0,
2215,,"Cassat Ave. & Shirley Ave. ns nb",,  30.283489, -81.730280,,,0,
2216,,"San Juan Ave. & Stimson St.",,  30.282210, -81.728100,,,0,
2217,,"Blanding Blvd. & Park St.",,  30.291600, -81.724110,,,0,
2218,,"Blanding Blvd. & Wheeler Ave",,  30.291120, -81.724200,,,0,
2221,,"1717 Blanding Blvd.",,  30.287830, -81.724110,,,0,
2222,,"1720 Blanding Blvd.",,  30.288050, -81.724200,,,0,
2224,,"Blanding Blvd. & Shirley Ave.",,  30.284290, -81.725090,,,0,
2225,,"Blanding Blvd. & Shirley Ave.",,  30.283800, -81.725476,,,0,
2227,,"San Juan Ave. & Blanding Blvd.",,  30.282230, -81.725670,,,0,
2228,,"San Juan Ave. & Stimson St. eb ns",,  30.282068, -81.728394,,,0,
2229,,"San Juan Ave. & Blanding Blvd. eb fs",,  30.282089, -81.725721,,,0,
2230,,"San Juan Ave. & Hamilton St. eb ns",,  30.282091, -81.722116,,,0,
2232,,"San Juan Ave. & Hamilton St. wb ns",,  30.282260, -81.721780,,,0,
2234,,"Blanding Blvd. & Palmer St.",,  30.281123, -81.726235,,,0,
2235,,"Blanding Blvd. & Sunderland Rd.",,  30.278370, -81.727700,,,0,
2236,,"Blanding Blvd. & Birkenhead Rd.",,  30.277054, -81.728955,,,0,
2237,,"Blanding Blvd. & Birkenhead Rd.",,  30.276710, -81.729600,,,0,
2239,,"Blanding Blvd. & Lake Shore Blvd.",,  30.275250, -81.731361,,,0,
2240,,"Blanding Blvd. & Lake Shore Blvd.",,  30.274440, -81.731900,,,0,
2247,,"San Juan Ave. & Vista Ave.",,  30.282070, -81.732600,,,0,
2248,,"San Juan Ave. & Vista Ave.",,  30.282160, -81.732200,,,0,
2249,,"San Juan Ave. & Harvester St.",,  30.282060, -81.734800,,,0,
2250,,"San Juan Ave. & Harvester St.",,  30.282200, -81.734300,,,0,
2251,,"San Juan Ave. & Lake Shore Blvd.",,  30.282030, -81.738200,,,0,
2252,,"San Juan Ave. & Lake Shore Blvd.",,  30.282180, -81.737900,,,0,
2253,,"San Juan Ave. & opp. Lindberg Dr.",,  30.282020, -81.742800,,,0,
2254,,"San Juan Ave. & Lindberg Dr.",,  30.282129, -81.742352,,,0,
2255,,"San Juan Ave. & Hyde Park Rd.",,  30.281885, -81.745934,,,0,
2256,,"San Juan Ave. & Hyde Park Rd.",,  30.282160, -81.745400,,,0,
2257,,"Normandy Blvd. & Lenox Blvd.",,  30.308844, -81.740118,,,0,
2258,,"Normandy Blvd. & Ellis Rd.",,  30.308658, -81.743084,,,0,
2268,,"Ramona Blvd. & Lane Ave.",,  30.314040, -81.752680,,,0,
2269,,"Ramona Blvd. & Lane Ave.",,  30.314140, -81.752480,,,0,
2274,,"Grace Ln. & Grace Cir.",,  30.309530, -81.756550,,,0,
2275,,"Grace Ln. & Grace Terr.",,  30.309550, -81.757470,,,0,
2276,,"Grace Ln. & Granville Rd.",,  30.309411, -81.754753,,,0,
2277,,"Grace Ln. & Granville Rd.",,  30.309474, -81.754010,,,0,
2278,,"Grace Ln. & Lane Ave.",,  30.309390, -81.752180,,,0,
2279,,"6555 Grace Ln.",,  30.309449, -81.752780,,,0,
2280,,"811 Faith Memorial Dr.",,  30.311550, -81.758240,,,0,
2281,,"1120 Faith Memorial Dr.",,  30.312086, -81.758280,,,0,
2282,,"1140 Faith Memorial Dr.",,  30.313260, -81.758280,,,0,
2283,,"Faith Memorial Dr. & Ramona Blvd.",,  30.313710, -81.758230,,,0,
2286,,"Normandy Blvd. & opp. Verna Blvd.",,  30.307389, -81.747806,,,0,
2287,,"Normandy Blvd. & Verna Blvd.",,  30.307694, -81.747361,,,0,
2288,,"Normandy Blvd. & Lane Ave.",,  30.306420, -81.750750,,,0,
2289,,"Normandy Blvd. & Lane Ave.",,  30.306550, -81.750890,,,0,
2290,,"Normandy Blvd. & Granville Rd.",,  30.305050, -81.754770,,,0,
2291,,"Normandy Blvd. & opp. Granville Rd.",,  30.304850, -81.754670,,,0,
2292,,"963 Lane Ave.",,  30.307840, -81.751820,,,0,
2293,,"Lane Ave. & Normandy Blvd.",,  30.305310, -81.751800,,,0,
2294,,"Lane Ave. & Normandy Blvd.",,  30.306865, -81.752035,,,0,
2295,,"Normandy Blvd. & LaMarche Rd. eb",,  30.303097, -81.758725,,,0,
2296,,"Normandy Blvd. & LaMarche Rd. wb",,  30.303071, -81.759737,,,0,
2297,,"Normandy Blvd. & Le Brun Rd.",,  30.301423, -81.763536,,,0,
2299,,"Normandy Blvd. & Memorial Park Rd.",,  30.300128, -81.765565,,,0,
2300,,"Normandy Blvd. & Memorial Park Rd.",,  30.300039, -81.766424,,,0,
2302,,"1149 Lane Ave.",,  30.303630, -81.751800,,,0,
2303,,"1164 Lane Ave.",,  30.303086, -81.752024,,,0,
2304,,"Lane Ave. & Lenox Ave.",,  30.299140, -81.751800,,,0,
2305,,"Lane Ave. & Lenox Ave.",,  30.299600, -81.751900,,,0,
2306,,"Lane Ave. & Park St.",,  30.296966, -81.751860,,,0,
2307,,"Lane Ave. & Park St.",,  30.297546, -81.752012,,,0,
2308,,"Lane Ave. & Londontowne Ln.",,  30.293160, -81.754700,,,0,
2309,,"Lane Ave. & Manotak Ave.",,  30.293720, -81.754400,,,0,
2310,,"Lane Ave. & Piccadilly",,  30.290830, -81.755200,,,0,
2311,,"1597 Lane Ave.",,  30.290840, -81.755440,,,0,
2312,,"1809 Lane Ave.",,  30.286400, -81.755200,,,0,
2313,,"Lane Ave. & Golfview St.",,  30.286780, -81.755300,,,0,
2314,,"Lane Ave. & Hyde Grove Ave.",,  30.284990, -81.755300,,,0,
2315,,"Lane Ave. & San Juan Blvd.",,  30.281680, -81.755100,,,0,
2316,,"Lane Ave. & Dayton Rd.",,  30.281330, -81.755300,,,0,
2317,,"Lane Ave. & Wiley Rd.",,  30.278870, -81.755100,,,0,
2318,,"Lane Ave. & Jack Horner Ln.",,  30.276720, -81.755400,,,0,
2319,,"Lane Ave. & Pinnochio Dr.",,  30.276220, -81.755300,,,0,
2320,,"Lane Ave. & Wiley Rd.",,  30.278950, -81.755300,,,0,
2321,,"Lane Ave. & Tinkerbell Ln.",,  30.274310, -81.755400,,,0,
2322,,"Lane Ave. & Tinkerbell Ln.",,  30.274410, -81.755600,,,0,
2323,,"2546 Lane Ave.",,  30.271584, -81.756505,,,0,
2324,,"Wilson Blvd. & Firestone Rd.",,  30.269990, -81.764060,,,0,
2325,,"Wilson Blvd. & Firestone Rd.",,  30.269890, -81.764540,,,0,
2326,,"Wilson Blvd. & Kohn Rd.",,  30.270110, -81.758700,,,0,
2327,,"Wilson Blvd. & Kohn Rd.",,  30.269960, -81.759080,,,0,
2328,,"Wilson Blvd. & Lane Ave.",,  30.270010, -81.756790,,,0,
2329,,"Wilson Blvd. & Lane Ave.",,  30.270170, -81.756130,,,0,
2330,,"Wilson Blvd. & McGregor Dr.",,  30.270090, -81.753700,,,0,
2331,,"Wilson Blvd. & McGregor Dr.",,  30.270200, -81.753380,,,0,
2332,,"Wilson Blvd. & Hugh Edwards Dr.",,  30.270280, -81.751670,,,0,
2333,,"Wilson Blvd. & Anvers Blvd.",,  30.270120, -81.751760,,,0,
2334,,"Wilson Blvd. & Parvin Dr.",,  30.270320, -81.749010,,,0,
2335,,"Wilson Blvd. & Ledbury Dr.",,  30.270172, -81.748669,,,0,
2336,,"Jammes Rd. & San Juan Ave.",,  30.281820, -81.747700,,,0,
2337,,"Jammes Rd. & Tiny Tim Ln.",,  30.280652, -81.747814,,,0,
2338,,"Jammes Rd. & San Juan Ave.",,  30.281262, -81.747912,,,0,
2339,,"Jammes Rd. & David Dr.",,  30.278760, -81.747700,,,0,
2340,,"Jammes Rd. & opp. Tegner Dr.",,  30.278320, -81.747800,,,0,
2342,,"Jammes Rd. & Badner Dr.",,  30.276513, -81.747590,,,0,
2343,,"Jammes Rd. & Cooper Ln.",,  30.271814, -81.747642,,,0,
2344,,"Jammes Rd. & Wilson Blvd.",,  30.270740, -81.747805,,,0,
2346,,"Jammes Rd. & Raw Hide Trl.",,  30.275220, -81.747600,,,0,
2347,,"2507 Jammes Rd.",,  30.273180, -81.747500,,,0,
2349,,"Jammes Rd. & opp. Cooper Ln.",,  30.272140, -81.747500,,,0,
2360,,"Blanding Blvd. & Hyde Park Rd.",,  30.272100, -81.734800,,,0,
2361,,"Blanding Blvd. & Cedar Park Ln.",,  30.271653, -81.734866,,,0,
2363,,"Blanding Blvd. & Wilson Blvd.",,  30.270000, -81.736100,,,0,
2365,,"3640 Blanding Blvd.",,  30.269978, -81.736410,,,0,
2366,,"Blanding Blvd. & Confederate Point Rd. ns",,  30.266485, -81.737679,,,0,
2396,,"3648 Lane Ave.",,  30.269450, -81.756600,,,0,
2397,,"2591 Lane Ave.",,  30.269237, -81.756447,,,0,
2398,,"Lane Ave. & Rojo Ct.",,  30.267760, -81.756800,,,0,
2399,,"Lane Ave. & Rojo Ct.",,  30.267690, -81.756940,,,0,
2400,,"Lane Ave. & Fuegus Dr.",,  30.265410, -81.758040,,,0,
2401,,"Lane Ave. & Fuegus Dr.",,  30.265830, -81.758000,,,0,
2402,,"Lane Ave. & Cinderella Rd.",,  30.262150, -81.758400,,,0,
2403,,"Lane Ave. & Cinderella Rd.",,  30.262820, -81.758460,,,0,
2404,,"Lane Ave. & Tom Thumb Dr.",,  30.259610, -81.758400,,,0,
2406,,"Lane Ave. & Biddy Ln.",,  30.259060, -81.758540,,,0,
2407,,"Mother Hubbard Dr. & Harlow Blvd.",,  30.251970, -81.757700,,,0,
2408,,"Lane Ave. & Melvin Rd.",,  30.255800, -81.758530,,,0,
2409,,"Lane Ave. & Daughtry Blvd.",,  30.252810, -81.758480,,,0,
2410,,"Lane Ave. & Daughtry Blvd.",,  30.253120, -81.758560,,,0,
2411,,"Harlow Blvd. & 103rd. St.",,  30.249330, -81.757600,,,0,
2412,,"Harlow Blvd. & 103rd. St.",,  30.249160, -81.757500,,,0,
2431,,"5135 Timuquana Rd.",,  30.247558, -81.714820,,,0,
2432,,"5170 Timuquana Rd.",,  30.247404, -81.716020,,,0,
2433,,"5347 Timuquana Rd.",,  30.247570, -81.719800,,,0,
2434,,"5320 Timuquana Rd.",,  30.247340, -81.719700,,,0,
2449,,"Timuquana Rd. & Eulace Rd.",,  30.247384, -81.733035,,,0,
2450,,"Timuquana Rd. & Lynn St.",,  30.248094, -81.736429,,,0,
2451,,"Timuquana Rd. & Seaboard Ave.",,  30.247310, -81.730870,,,0,
2452,,"Timuquana Rd. & Eulace Rd.",,  30.247282, -81.733406,,,0,
2453,,"Timuquana Rd. & Wesconnett Blvd.",,  30.248506, -81.739660,,,0,
2454,,"Timuquana Rd. & Wesconnett Blvd.",,  30.248290, -81.739887,,,0,
2455,,"Timuquana Rd. & Blanding Blvd.",,  30.248470, -81.742500,,,0,
2456,,"Blanding Blvd. & 103rd St.",,  30.249964, -81.743159,,,0,
2458,,"Blanding Blvd. & Wesconnett Blvd.",,  30.234783, -81.739733,,,0,
2459,,"Blanding Blvd. & 103rd St. sb fs",,  30.246987, -81.743174,,,0,
2460,,"6016 Blanding Blvd.",,  30.241530, -81.742050,,,0,
2461,,"Blanding Blvd. & 105th St. fs",,  30.243130, -81.742600,,,0,
2466,,"103rd St. & Blanding Blvd.",,  30.248363, -81.743504,,,0,
2467,,"103rd St. & Jammes Rd.",,  30.248356, -81.747560,,,0,
2468,,"103rd St. & Jammes Rd.",,  30.248460, -81.746910,,,0,
2471,,"103rd St. & Harlow Blvd.",,  30.248306, -81.757646,,,0,
2472,,"6767 103rd St.",,  30.249128, -81.754886,,,0,
2473,,"103rd St. & Norde Dr.",,  30.248333, -81.752432,,,0,
2474,,"103rd St. & Norde Dr.",,  30.248410, -81.752140,,,0,
2475,,"103rd St. & Cemetery Rd.",,  30.248432, -81.759288,,,0,
2477,,"103rd St. & Tampico Rd.",,  30.248421, -81.757331,,,0,
2478,,"6730 103rd St.",,  30.248450, -81.755594,,,0,
2479,,"6760 103rd St.",,  30.248300, -81.755407,,,0,
2488,,"Blanding Blvd. & Morse Ave.",,  30.226556, -81.737775,,,0,
2489,,"Blanding Blvd. & Morse Ave.",,  30.225829, -81.737997,,,0,
2490,,"7264 Blanding Blvd.",,  30.214639, -81.737380,,,0,
2491,,"Blanding Blvd. & Longchamp Dr.",,  30.209996, -81.738554,,,0,
2493,,"Blanding Blvd. & Townsend fs nb",,  30.219509, -81.736654,,,0,
2494,,"Blanding Blvd. & Townsend Rd.",,  30.218308, -81.737076,,,0,
2495,,"Blanding Blvd. & DuClay Rd.",,  30.212794, -81.736840,,,0,
2496,,"Blanding Blvd. & Longchamp Dr.",,  30.210433, -81.737744,,,0,
2498,,"8108 Blanding Blvd.",,  30.201462, -81.739689,,,0,
2499,,"Blanding Blvd. & Collins Rd.",,  30.205284, -81.739310,,,0,
2500,,"6107 Youngerman Cir.",,  30.195586, -81.742422,,,0,
2501,,"6001 Youngerman Cir.",,  30.195470, -81.742510,,,0,
2502,,"Youngerman Cir. & opp. Periwinkle Dr.",,  30.196734, -81.750884,,,0,
2503,,"Youngerman Cir & Argyle Forest Bl",,  30.192990, -81.752770,,,0,
2504,,"6155 Youngerman Cir.",,  30.196630, -81.744400,,,0,
2505,,"6455 Youngerman Cir.",,  30.196570, -81.744879,,,0,
2506,,"6373 Youngerman Cir.",,  30.197180, -81.746180,,,0,
2507,,"Youngerman Cir. & Periwinkle Dr.",,  30.196820, -81.751190,,,0,
2508,,"Youngerman Cir & Argyle Forest Bl",,  30.193530, -81.752570,,,0,
2514,,"Blanding Blvd. & Orange Park Northway",,  30.183464, -81.738197,,,0,
2527,,"Park Ave. & Mc Intosh Ave.",,  30.167930, -81.701030,,,0,
2528,,"Park Ave. & Blake Ave.",,  30.174900, -81.701340,,,0,
2529,,"Park Ave. & Loring Ave.",,  30.181610, -81.701620,,,0,
2530,,"Park Ave. & Wells Rd.",,  30.183500, -81.701690,,,0,
2558,,"F.S.C.J. Cecil Center Campus",,  30.250875, -81.890433,,,0,
2569,,"Lake Newman St. & Authority Ave.",,  30.231370, -81.887260,,,0,
2577,,"103rd St. & Samaritan Way",,  30.246986, -81.835972,,,0,
2578,,"103rd St. & Samaritan Wy.",,  30.247369, -81.834852,,,0,
2580,,"10244 103rd St.",,  30.247262, -81.828265,,,0,
2581,,"10231 103rd St.",,  30.247420, -81.829050,,,0,
2582,,"103rd St. & Connie Jean Rd.",,  30.247375, -81.823662,,,0,
2583,,"103rd St. & Connie Jean Rd.",,  30.247580, -81.824190,,,0,
2584,,"103rd St. & Britton Ln.",,  30.247730, -81.819990,,,0,
2585,,"9842 103rd St.",,  30.247528, -81.820106,,,0,
2586,,"103rd St. & Rockola Rd.",,  30.247542, -81.807086,,,0,
2587,,"103rd St. & opp. Rockola Rd.",,  30.247914, -81.806615,,,0,
2588,,"103rd St. & Vivian Dr.",,  30.247830, -81.809720,,,0,
2589,,"8968 103rd St.",,  30.247590, -81.801960,,,0,
2590,,"9005 103rd St.",,  30.247700, -81.802450,,,0,
2592,,"9539 103rd St.",,  30.247880, -81.813460,,,0,
2594,,"103rd St. & Old Middleburg Rd.",,  30.247770, -81.799130,,,0,
2596,,"103rd St. & Ken Rd.",,  30.247612, -81.794256,,,0,
2597,,"103rd St. & Ken Rd.",,  30.247943, -81.793757,,,0,
2598,,"103rd St. & Kinkaid Rd.",,  30.247738, -81.790099,,,0,
2599,,"103rd St. & Kinkaid Rd.",,  30.248050, -81.789599,,,0,
2600,,"103rd St. & Brannon Ave.",,  30.247785, -81.788163,,,0,
2601,,"103rd St. & Brannon Ave.",,  30.248137, -81.787481,,,0,
2602,,"103rd St. & Old Middleburg Rd.",,  30.248204, -81.785062,,,0,
2603,,"103rd St. & Valdura Ave.",,  30.247903, -81.784894,,,0,
2605,,"103rd St. & California Ave.",,  30.247987, -81.782649,,,0,
2606,,"7915 103rd St.",,  30.248306, -81.779167,,,0,
2607,,"103rd St. & Hillman St.",,  30.248052, -81.778617,,,0,
2608,,"7650 103rd St.",,  30.248090, -81.774882,,,0,
2609,,"7276 103rd St.",,  30.248180, -81.767100,,,0,
2610,,"103rd St. & Firestone Rd.",,  30.248190, -81.764800,,,0,
2612,,"Hillman Dr. & 103rd St.",,  30.247890, -81.777100,,,0,
2614,,"Hillman Dr. & Jaguar Dr.",,  30.242820, -81.777100,,,0,
2615,,"Wheat Rd. & Hillman Dr.",,  30.240340, -81.776900,,,0,
2616,,"Wheat Rd. & Ricker Rd.",,  30.240370, -81.772700,,,0,
2617,,"Wheat Rd. & Buckley Dr.",,  30.240390, -81.766800,,,0,
2618,,"Wheat Rd. & Ridgeway Rd.",,  30.240400, -81.769200,,,0,
2619,,"Firestone Rd. & Wheat Rd.",,  30.241330, -81.764622,,,0,
2620,,"Firestone Rd. & 103rd St.",,  30.247527, -81.764573,,,0,
2629,,"Old Middleburg Rd. & Firetower Rd.",,  30.249253, -81.785771,,,0,
2630,,"Old Middleburg Rd. & McGlothlin St.",,  30.252470, -81.785870,,,0,
2631,,"Old Middleburg Rd. & Noroad",,  30.255240, -81.785990,,,0,
2632,,"4374 Old Middleburg Rd.",,  30.258340, -81.784250,,,0,
2633,,"7570 Wilson Blvd.",,  30.269640, -81.775540,,,0,
2634,,"Fouraker Rd. & Blazing Star Rd.",,  30.262580, -81.781230,,,0,
2635,,"7587 Wilson Blvd.",,  30.269730, -81.775340,,,0,
2636,,"Fouraker Rd. & Springtree Rd.",,  30.266233, -81.781166,,,0,
2637,,"Fouraker Rd. & Springtree Rd.",,  30.266940, -81.781240,,,0,
2638,,"Fouraker Rd. & Wilson Rd.",,  30.269380, -81.781230,,,0,
2639,,"Fouracker Rd. & La Trec Dr.",,  30.287398, -81.781248,,,0,
2642,,"Herlong Rd. & opp. Doyon Ct.",,  30.284141, -81.791691,,,0,
2643,,"Herlong Rd. & De La Roche Dr.",,  30.284202, -81.784610,,,0,
2644,,"Herlong Rd. & Fouraker Dr.",,  30.284186, -81.781989,,,0,
2645,,"Herlong Rd. & Monteau Dr.",,  30.284180, -81.787209,,,0,
2646,,"Herlong Rd. & Oxbow Rd.",,  30.284151, -81.789896,,,0,
2647,,"Herlong Rd. & opp. Newbolt Ct.",,  30.284150, -81.793450,,,0,
2648,,"Fouracker Rd. & Normandy Blvd.",,  30.292106, -81.781226,,,0,
2649,,"Fouracker Rd. & Renoir Dr.",,  30.290097, -81.781240,,,0,
2650,,"8910 Herlong Rd.",,  30.284010, -81.800493,,,0,
2651,,"Herlong Rd. & Normandy Blvd.",,  30.283936, -81.806530,,,0,
2652,,"Wilson Blvd. & Debra Dr.",,  30.269870, -81.770060,,,0,
2653,,"Wilson Blvd. & Debra Dr.",,  30.269740, -81.770390,,,0,
2654,,"Wilson Blvd. & Old Middleburg Rd.",,  30.269710, -81.772770,,,0,
2655,,"Wilson Blvd. & Old Middleburg Rd.",,  30.269840, -81.771840,,,0,
2657,,"Wilson Blvd. & Guerad Dr.",,  30.269640, -81.779960,,,0,
2658,,"Wilson Blvd. & Paleface Pl.",,  30.269760, -81.778570,,,0,
2659,,"Normandy Blvd. & Combs St.",,  30.294671, -81.777399,,,0,
2660,,"Normandy Blvd. & Country Creek Blvd.",,  30.290608, -81.787696,,,0,
2661,,"Normandy Blvd. & Derito Dr.",,  30.288975, -81.794550,,,0,
2662,,"Normandy Blvd. & Fouraker Rd.",,  30.293337, -81.780019,,,0,
2663,,"Normandy Blvd. & Hammond Blvd.",,  30.287787, -81.798736,,,0,
2664,,"Normandy Blvd. & Lamplighter Ln.",,  30.286330, -81.802702,,,0,
2667,,"8435 Normandy Blvd.",,  30.289828, -81.791035,,,0,
2668,,"Normandy Blvd. & Normandy Village Pkwy.",,  30.294625, -81.776569,,,0,
2669,,"7900 Normandy Blvd.",,  30.293317, -81.779345,,,0,
2695,,"Buckman St. & 21st St.",,  30.357900, -81.632780,,,0,
2696,,"Buckman St. & 23rd St.",,  30.359010, -81.632800,,,0,
2697,,"Buckman St. & 24th St.",,  30.359820, -81.632810,,,0,
2698,,"1150 27th St",,  30.361138, -81.639863,,,0,
2699,,"27th St. & Haines St.",,  30.361220, -81.636710,,,0,
2700,,"27th St. & Buckman St.",,  30.361280, -81.632990,,,0,
2701,,"1522 27th St.",,  30.361270, -81.634370,,,0,
2702,,"E. 24th St. & Phoenix Ave.",,  30.360152, -81.641185,,,0,
2703,,"3207 Phoenix Ave.",,  30.358481, -81.641026,,,0,
2705,,"21st St. & Haines St.",,  30.357500, -81.636662,,,0,
2708,,"21st St. & opp. Bennett St.",,  30.357586, -81.634997,,,0,
2709,,"21st St. & Phoenix Ave.",,  30.357415, -81.640648,,,0,
2710,,"21st St. & Plateau St.",,  30.357489, -81.638193,,,0,
2712,,"Phoenix Ave. & 17th St.",,  30.354660, -81.641230,,,0,
2713,,"Phoenix Ave. & 17th St.",,  30.354460, -81.641040,,,0,
2715,,"Phoenix Ave. & 16th St.",,  30.353500, -81.641050,,,0,
2716,,"Phoenix Ave. & 15th St.",,  30.352908, -81.641218,,,0,
2717,,"Phoenix Ave. & 13th St.",,  30.351410, -81.641020,,,0,
2718,,"Phoenix Ave. & 12th St.",,  30.350780, -81.641120,,,0,
2719,,"Phoenix Ave. & 11th St.",,  30.349590, -81.640970,,,0,
2720,,"Phoenix Ave. & 10th St.",,  30.348058, -81.640930,,,0,
2721,,"Phoenix Ave. & 10th St.",,  30.348116, -81.641108,,,0,
2722,,"Phoenix Ave. & Winthrop St.",,  30.347098, -81.640926,,,0,
2723,,"Phoenix Ave. & Winthrop St.",,  30.347250, -81.641110,,,0,
2724,,"Phoenix Ave. & 8th St.",,  30.345450, -81.641040,,,0,
2725,,"Phoenix Ave. & 9th St.",,  30.345900, -81.640920,,,0,
2748,,"A. Philip Randolph Bl. & Union St.",,  30.330840, -81.642380,,,0,
2749,,"A. Philip Randolph Bl. & Odessa St.",,  30.332940, -81.642600,,,0,
2750,,"A. Philip Randolph Bl. & Phelps St.",,  30.334440, -81.642600,,,0,
2751,,"Florida Ave. & E. 1st St.",,  30.336630, -81.642200,,,0,
2752,,"Florida Ave. & E. 4th St.",,  30.340490, -81.642300,,,0,
2753,,"Florida Ave. & E. 5th St.",,  30.342130, -81.642300,,,0,
2755,,"1565 Florida Ave.",,  30.343350, -81.642300,,,0,
2756,,"A. Philip Randolph Bl. & Union St.",,  30.331510, -81.642550,,,0,
2759,,"8th St. & Main St.",,  30.345730, -81.654260,,,0,
2760,,"Main St. & 8th St.",,  30.345980, -81.654040,,,0,
2761,,"Main St. & 8th St.",,  30.345570, -81.653910,,,0,
2774,,"8th St. & Laura St.",,  30.345910, -81.655370,,,0,
2777,,"8th St. & Pearl St.",,  30.346063, -81.658962,,,0,
2779,,"8th St. & Boulevard St.",,  30.346332, -81.660600,,,0,
2780,,"8th St. & Boulevard St.",,  30.346214, -81.660877,,,0,
2783,,"8th St. & Pearl St.",,  30.346114, -81.658284,,,0,
2786,,"8th St. & James Hall Dr.",,  30.346951, -81.665603,,,0,
2787,,"8th St. & James Hall Dr. ns wb",,  30.346990, -81.665220,,,0,
2789,,"Market St. & 1st St.",,  30.335700, -81.651860,,,0,
2790,,"Market St. & 1st St.",,  30.335670, -81.651970,,,0,
2802,,"Main St. & 1st St.",,  30.336960, -81.654810,,,0,
2804,,"Main St. & 3rd St.",,  30.338860, -81.654630,,,0,
2805,,"Main St. & 4th St.",,  30.340740, -81.654580,,,0,
2806,,"Main St. & 6th St.",,  30.343340, -81.654310,,,0,
2807,,"Main St. & 6th St.",,  30.342730, -81.654210,,,0,
2808,,"Main St. & 10th St.",,  30.348600, -81.653760,,,0,
2809,,"Main St. & 10th St.",,  30.348140, -81.653620,,,0,
2810,,"Main St. & 12th St.",,  30.351030, -81.653810,,,0,
2811,,"Main St. & 12th St.",,  30.350650, -81.653640,,,0,
2814,,"Main St. & 16th St.",,  30.353780, -81.653910,,,0,
2815,,"Main St. & 17th St.",,  30.354030, -81.653770,,,0,
2818,,"Main St. & 21st St.",,  30.356850, -81.653810,,,0,
2819,,"Main St. & 22nd St.",,  30.357920, -81.653920,,,0,
2821,,"Main St. & 25th St.",,  30.359750, -81.653550,,,0,
2823,,"Main St. & 27th St.",,  30.361070, -81.653550,,,0,
2825,,"Main St. & 31st St. nb",,  30.362878, -81.653213,,,0,
2826,,"Main St. & 32nd St.",,  30.363719, -81.653340,,,0,
2827,,"Main St. & Winona Dr.",,  30.365905, -81.652795,,,0,
2828,,"Main St. & 35th St.",,  30.365080, -81.653140,,,0,
2830,,"Main St. & 38th St",,  30.367630, -81.652520,,,0,
2831,,"Main St. & 40th St.",,  30.369720, -81.651660,,,0,
2835,,"Main St. & 44th St.",,  30.373133, -81.651496,,,0,
2836,,"Main St. & 44th St.",,  30.372220, -81.651270,,,0,
2840,,"Main St. & 48th St.",,  30.375089, -81.651107,,,0,
2841,,"Main St. & 48th St.",,  30.375957, -81.651364,,,0,
2847,,"Main St. & 56th St.",,  30.379291, -81.650432,,,0,
2848,,"Main St. & Tallulah Ave.",,  30.380433, -81.650349,,,0,
2851,,"Main St. & 61st St.",,  30.382881, -81.649423,,,0,
2852,,"Main St. & opp. 61st St.",,  30.383293, -81.649576,,,0,
2853,,"69 Tallulah Ave.",,  30.381950, -81.651810,,,0,
2854,,"52 Tallulah Ave.",,  30.381440, -81.651350,,,0,
2855,,"Main St. & 65th St.",,  30.385800, -81.648660,,,0,
2857,,"Main St. & Trout River Dr.(68th)",,  30.387714, -81.648401,,,0,
2858,,"Main St. & Sycamore St.",,  30.390130, -81.647520,,,0,
2874,,"Main St. & Zoo Pkwy.",,  30.403927, -81.649477,,,0,
2877,,"219 Tallulah Ave.",,  30.384530, -81.655130,,,0,
2878,,"Tallulah Ave. & 62nd St.",,  30.384580, -81.655360,,,0,
2879,,"Tallulah Ave. & 66th St.",,  30.386810, -81.658090,,,0,
2882,,"Tallulah Ave. & Lorain St",,  30.389020, -81.661110,,,0,
2883,,"Tallulah Ave. & Lorain St.",,  30.389020, -81.660900,,,0,
2884,,"380 Tallulah Ave.",,  30.386985, -81.658487,,,0,
2893,,"Pearl St. & 48th St.",,  30.375730, -81.656600,,,0,
2894,,"Pearl St. & 46th St.",,  30.374610, -81.656760,,,0,
2895,,"Pearl St. & 46th St.",,  30.374240, -81.656610,,,0,
2896,,"Pearl St. & 45th St.",,  30.373160, -81.656570,,,0,
2897,,"Pearl St. & 44th St.",,  30.372850, -81.656750,,,0,
2898,,"Pearl St. & 42nd St.",,  30.371030, -81.656560,,,0,
2900,,"Pearl St. & 40th St.",,  30.369400, -81.656550,,,0,
2901,,"Pearl St. & 40th St.",,  30.369690, -81.656710,,,0,
2904,,"Pearl St. & 36th St.",,  30.366970, -81.656540,,,0,
2905,,"Pearl St. & Fern St.",,  30.365350, -81.656720,,,0,
2906,,"Pearl St. & Long Branch Blvd.",,  30.365643, -81.656950,,,0,
2907,,"Pearl St. & Basswood St.",,  30.363430, -81.657220,,,0,
2908,,"Pearl St. & 30th St.",,  30.362660, -81.657200,,,0,
2909,,"Pearl St. & Golfair Blvd.",,  30.361685, -81.657557,,,0,
2939,,"Edgewood Ave. & Kenya St.",,  30.391580, -81.664410,,,0,
2940,,"Edgewood Ave. & Merle Dr.",,  30.391430, -81.664070,,,0,
2941,,"48th St. & opp. Winn Dixie",,  30.375653, -81.654788,,,0,
2942,,"48th St. & Silver St.",,  30.375790, -81.654980,,,0,
2944,,"44th St. & Springfield Blvd.",,  30.372570, -81.657980,,,0,
2945,,"44th St. & Springfield Blvd.",,  30.372650, -81.657960,,,0,
2946,,"44th St. & Twin Towers",,  30.372656, -81.660856,,,0,
2947,,"44th St. & Twin Towers",,  30.372550, -81.660720,,,0,
2949,,"44th St. & 41st St.",,  30.371646, -81.662425,,,0,
2950,,"Gateway Hub",,  30.370089, -81.664899,,,0,
2960,,"Boulevard St. & 8th St.",,  30.346903, -81.661233,,,0,
2961,,"Boulevard St. & 9th St. nb ns",,  30.347548, -81.661043,,,0,
2964,,"Boulevard St. & 11th St.",,  30.350120, -81.660990,,,0,
2965,,"Boulevard St. & 12th St. ns",,  30.350501, -81.660884,,,0,
2968,,"Boulevard St. & 16th St.",,  30.353090, -81.661320,,,0,
2969,,"Boulevard St. & 16th St.",,  30.353363, -81.661160,,,0,
2977,,"21st St. & Flanders St. wb",,  30.357030, -81.662340,,,0,
2982,,"Golfair Blvd. & Boulevard St.",,  30.362460, -81.661431,,,0,
2983,,"Golfair Blvd. & Springfield Rd. ns wb",,  30.362966, -81.662297,,,0,
2985,,"Golfair Blvd. & 30th St. fs",,  30.363594, -81.664142,,,0,
2989,,"Brentwood Ave. & Woodbine St. nb",,  30.365171, -81.663621,,,0,
2992,,"Brentwood Ave. & Alder St. nb",,  30.366617, -81.662808,,,0,
2993,,"Brentwood Ave. & Alder St.",,  30.366897, -81.662869,,,0,
2994,,"21st St. & Saturn Ave.",,  30.356950, -81.664190,,,0,
2996,,"21st St. & Mars St.",,  30.356930, -81.665940,,,0,
2997,,"21st St. & Brentwood Ave. wb",,  30.357030, -81.665300,,,0,
2999,,"Davis St. & 23rd St.",,  30.358450, -81.667320,,,0,
3000,,"Brick Rd. & 25th St.",,  30.359810, -81.667080,,,0,
3001,,"Brick Rd. & opp. 25th St.",,  30.359684, -81.666971,,,0,
3003,,"Brick Rd. & 28th St.",,  30.361980, -81.666200,,,0,
3006,,"Brick Rd. & 30th St. nb",,  30.362960, -81.665640,,,0,
3007,,"30th St. & Brick Rd.",,  30.363217, -81.665354,,,0,
3010,,"Jefferson St. & 6th St. sb ns",,  30.344246, -81.662972,,,0,
3011,,"Jefferson St. & 6th St. nb fs",,  30.344390, -81.662850,,,0,
3012,,"Jefferson St. & 1st St.",,  30.338320, -81.663500,,,0,
3013,,"Jefferson St. & 3rd St.",,  30.339450, -81.663070,,,0,
3014,,"Jefferson St. & 3rd St.",,  30.339436, -81.663253,,,0,
3016,,"Jefferson St. & 4th St. fs sb",,  30.340967, -81.663070,,,0,
3017,,"Jefferson St. & 4th St. ns nb",,  30.341630, -81.662962,,,0,
3036,,"Norwood Ave. & 44th St. nb",,  30.369919, -81.663141,,,0,
3037,,"Norwood Ave. & 44th St.",,  30.370000, -81.663401,,,0,
3038,,"44th St. & Norwood Ave.",,  30.371504, -81.663201,,,0,
3039,,"5338 Norwood Ave.",,  30.372200, -81.664520,,,0,
3040,,"5647 Norwood Ave. nb",,  30.373340, -81.665240,,,0,
3041,,"5650 Norwood Ave.",,  30.373320, -81.665350,,,0,
3042,,"Norwood Ave. & Broxton St. ns",,  30.376082, -81.667127,,,0,
3043,,"Norwood Ave. & Escambia St.",,  30.375320, -81.666810,,,0,
3044,,"Norwood Ave. & Calvert St. nb",,  30.377904, -81.668505,,,0,
3045,,"Norwood Ave. & Kenmore St.",,  30.377798, -81.668643,,,0,
3048,,"Norwood Ave. & Essex St. fs",,  30.379914, -81.669924,,,0,
3050,,"Norwood Ave. & Ardmore St.",,  30.379960, -81.670297,,,0,
3051,,"Norwood Ave. & Carrollton Rd. nb",,  30.381630, -81.671465,,,0,
3052,,"Norwood Ave. & Carrollton Rd.",,  30.381950, -81.672140,,,0,
3053,,"Lem Turner Rd. & Ashton St. nb",,  30.384340, -81.674230,,,0,
3054,,"Lem Turner Rd. & Lem Turner Cir.",,  30.384620, -81.674640,,,0,
3056,,"Lem Turner Rd. & Lila Ave.",,  30.386780, -81.676410,,,0,
3057,,"Lem Turner Rd. & Lila Ave. nb",,  30.386550, -81.676010,,,0,
3059,,"Lem Turner Rd. & Rowe Ave.",,  30.388480, -81.677530,,,0,
3060,,"Lem Turner Rd. & Edgewood Ave.",,  30.390800, -81.679080,,,0,
3061,,"Lem Turner Rd. & Edgewood Ave.",,  30.391301, -81.679561,,,0,
3063,,"Lem Turner Rd. & Lake Forest Blvd.",,  30.392400, -81.680180,,,0,
3067,,"Lem Turner Rd. & Palmdale St.",,  30.393162, -81.681268,,,0,
3069,,"Lem Turner Rd. & Prospect St.",,  30.399360, -81.683490,,,0,
3070,,"Lem Turner Rd. & Prospect St.",,  30.399760, -81.683780,,,0,
3071,,"Lem Turner Rd. & Elm St.",,  30.402100, -81.684150,,,0,
3072,,"Lem Turner Rd. & Elm St.",,  30.402380, -81.684430,,,0,
3075,,"Lem Turner Rd. & Clyde Dr.",,  30.406420, -81.686670,,,0,
3076,,"Lem Turner Rd. & Clyde Dr.",,  30.407018, -81.686764,,,0,
3082,,"Lem Turner Rd. & Riverview School Rd. sb ns",,  30.410890, -81.689280,,,0,
3083,,"Lem Turner Rd. & Bayview Ave.",,  30.413430, -81.691420,,,0,
3084,,"Lem Turner Rd. & Woodland Ave",,  30.413970, -81.693070,,,0,
3086,,"Lem Turner Rd. & Trout River Blvd.",,  30.415240, -81.695000,,,0,
3087,,"Lem Turner Rd. & Trout River Blvd.",,  30.415570, -81.695570,,,0,
3088,,"Lem Turner Rd. & Broward Rd.",,  30.421330, -81.696230,,,0,
3089,,"Lem Turner Rd. & Broward Rd.",,  30.421460, -81.696430,,,0,
3092,,"Lem Turner Rd. & Leonid Rd.",,  30.429920, -81.694220,,,0,
3093,,"Lem Turner Rd. & Tinsley Rd.",,  30.430410, -81.694060,,,0,
3096,,"10939 Lem Turner Rd.",,  30.434500, -81.695660,,,0,
3097,,"10972 Lem Turner Rd.",,  30.435260, -81.696230,,,0,
3099,,"Lem Turner Rd. & Dunn Ave. ns nb",,  30.437427, -81.697076,,,0,
3100,,"Lem Turner Rd. & Dunn Ave.",,  30.438040, -81.697823,,,0,
3109,,"Lem Turner Rd. & Armsdale Rd. fs nb",,  30.451578, -81.704627,,,0,
3110,,"11830 Lem Turner Rd. (Walmart)",,  30.450259, -81.704677,,,0,
3112,,"Dinsmore Tower Rd. & Old Kings Rd.",,  30.474191, -81.785151,,,0,
3113,,"Dunn Ave. & New Kings Rd. (onsite)",,  30.440646, -81.762523,,,0,
3117,,"Dunn Ave. & Wingate Rd.",,  30.438510, -81.713730,,,0,
3118,,"Dunn Ave. & Wingate Rd.",,  30.438480, -81.709870,,,0,
3119,,"4134 Dunn Ave.",,  30.438440, -81.714100,,,0,
3120,,"3737 Dunn Ave.",,  30.438640, -81.708950,,,0,
3121,,"Dunn Ave. & Dobson Dr.",,  30.438690, -81.705380,,,0,
3122,,"Dunn Ave. & Natalie Dr.",,  30.438580, -81.704610,,,0,
3125,,"Dunn Ave. & Lem Turner Rd.",,  30.438620, -81.698420,,,0,
3126,,"Dunn Ave. & Lorence St.",,  30.438840, -81.695180,,,0,
3127,,"2900 Dunn Ave.",,  30.438709, -81.695470,,,0,
3129,,"Dunn Ave. & Duval Rd.",,  30.438886, -81.692507,,,0,
3130,,"Dunn Ave. & Irma Rd.",,  30.438920, -81.689220,,,0,
3131,,"Dunn Ave. & Pine Estates Dr.",,  30.438738, -81.689870,,,0,
3132,,"2436 Dunn Ave.",,  30.438682, -81.687254,,,0,
3133,,"2455 Dunn Ave.",,  30.439000, -81.686630,,,0,
3134,,"Dunn Ave. & E. Pine Estates Rd.",,  30.438920, -81.683100,,,0,
3135,,"Dunn Ave. & Pine Estates Dr.",,  30.439020, -81.682700,,,0,
3136,,"Dunn Ave. & Armsdale Rd.",,  30.439040, -81.678540,,,0,
3137,,"2100 Dunn Ave.",,  30.438950, -81.679080,,,0,
3138,,"Dunn Ave. & Marc Vic Ln.",,  30.434965, -81.674862,,,0,
3139,,"1826 Dunn Ave.",,  30.433817, -81.674762,,,0,
3140,,"1607 Dunn Ave.",,  30.431274, -81.673497,,,0,
3141,,"1604 Dunn Ave",,  30.430956, -81.674005,,,0,
3145,,"Dunn Ave. & Biscayne Blvd.",,  30.430043, -81.671405,,,0,
3146,,"Dunn Ave. & Biscayne fs eb",,  30.429767, -81.670218,,,0,
3148,,"1291 Dunn Ave.",,  30.429950, -81.667210,,,0,
3150,,"Dunn Ave. & Briarcliff Rd.",,  30.429810, -81.665210,,,0,
3151,,"1056 Dunn Ave.",,  30.429840, -81.663100,,,0,
3152,,"1057 Dunn Ave.",,  30.430000, -81.663150,,,0,
3153,,"Dunn Ave. & Regency Dr. ns eb",,  30.429898, -81.660791,,,0,
3154,,"Dunn Ave. & Regency Dr. fs wb",,  30.430000, -81.660400,,,0,
3159,,"192 Busch Dr.",,  30.429918, -81.650328,,,0,
3161,,"Busch Dr. & Balmoral Dr.",,  30.430204, -81.652753,,,0,
3166,,"Busch Dr. & Yeager Rd. fs nb",,  30.429198, -81.637365,,,0,
3167,,"Busch Dr. & Yeager Rd. ns sb",,  30.429063, -81.637508,,,0,
3173,,"F.S.C.J. North Campus",,  30.429337, -81.718956,,,0,
3174,,"North Campus Blvd. & Capper Rd.",,  30.427770, -81.712910,,,0,
3175,,"North Campus Blvd. & Penneykemp Rd.",,  30.432100, -81.716010,,,0,
3176,,"North Campus Blvd. & Penneykemp Rd.",,  30.432230, -81.716210,,,0,
3177,,"North Campus Blvd. & Key Adam Dr.",,  30.435150, -81.716390,,,0,
3178,,"North Campus Blvd. & Key Adam Dr.",,  30.435360, -81.716400,,,0,
3179,,"North Campus Blvd. & Dunn Ave.",,  30.437790, -81.715800,,,0,
3180,,"North Campus Blvd. & Dunn Ave.",,  30.437820, -81.715900,,,0,
3185,,"J.I.A.",,  30.490431, -81.682761,,,0,
3186,,"Airport Rd. & Duval Rd",,  30.481937, -81.648417,,,0,
3188,,"Airport Rd. & International Pkwy.",,  30.483486, -81.658831,,,0,
3189,,"1372 S. Airport Rd.",,  30.482930, -81.655169,,,0,
3194,,"Airport Rd. & Ranch Rd.",,  30.482227, -81.650450,,,0,
3200,,"River City Marketplace",,  30.478067, -81.640653,,,0,
3215,,"9181 Main St.",,  30.406500, -81.649890,,,0,
3216,,"Main St. & Broward Rd.",,  30.401570, -81.649470,,,0,
3217,,"Main St. & opp Broward Rd fs nb",,  30.401496, -81.649172,,,0,
3220,,"Zoo Pkwy. & Parker Ave.",,  30.406060, -81.646220,,,0,
3229,,"Interstate Center Dr. & Clark Rd.",,  30.414208, -81.659473,,,0,
3230,,"Interstate Center Dr. & Clark Rd.",,  30.414660, -81.658857,,,0,
3231,,"430 Interstate Center Dr.",,  30.417850, -81.658630,,,0,
3232,,"435 Interstate Center Dr.",,  30.417550, -81.658580,,,0,
3233,,"10325 Interstate Center Dr.",,  30.422430, -81.658650,,,0,
3234,,"80 Interstate Center Dr.",,  30.422999, -81.658761,,,0,
3237,,"Monaco Dr. & Dunn Ave.",,  30.428701, -81.659955,,,0,
3238,,"Monaco Dr. & Beckner Ave.",,  30.427250, -81.659910,,,0,
3239,,"Monaco Dr. & Pheasant Dr.",,  30.425430, -81.659840,,,0,
3240,,"Monaco Dr. & Pheasant Dr.",,  30.425150, -81.659900,,,0,
3241,,"Monaco Dr. & Dunn Ave.",,  30.428742, -81.659810,,,0,
3243,,"Edison Ave. & Lime St.",,  30.322810, -81.683580,,,0,
3244,,"Edison Ave. & Lime St.",,  30.322760, -81.684180,,,0,
3245,,"Edison Ave. & Copeland St.",,  30.322910, -81.686780,,,0,
3246,,"Edison Ave. & Copeland St.",,  30.322830, -81.687040,,,0,
3250,,"Edison Ave. & Broward St.",,  30.322930, -81.695150,,,0,
3251,,"Edison Ave. & King St.",,  30.322510, -81.696600,,,0,
3252,,"Edison Ave. & Biggs St.",,  30.323060, -81.693150,,,0,
3253,,"Edison Ave. & Broward St.",,  30.323020, -81.694720,,,0,
3254,,"Edison Ave. & King St.",,  30.322590, -81.696500,,,0,
3255,,"Edison Ave. & McDuff Ave.",,  30.323097, -81.704717,,,0,
3256,,"Edison Ave. & Willow Branch Ave.",,  30.322930, -81.702990,,,0,
3257,,"Edison Ave. & Acosta St.",,  30.322970, -81.692760,,,0,
3259,,"Edison Ave. & Sunshine St.",,  30.322750, -81.699390,,,0,
3261,,"2968 Edison Ave.",,  30.323010, -81.704380,,,0,
3262,,"2788 Edison Ave.",,  30.322599, -81.698776,,,0,
3264,,"McDuff Ave. & Lenox Ave.",,  30.322200, -81.705500,,,0,
3265,,"3018 Lenox Ave.",,  30.321950, -81.706440,,,0,
3266,,"3033 Lenox Ave.",,  30.322030, -81.706690,,,0,
3267,,"Lenox Ave. & Shearer Ave.",,  30.321889, -81.707720,,,0,
3268,,"Lenox Ave. & Shearer Ave.",,  30.322020, -81.707930,,,0,
3269,,"Lenox Ave. & Lenox Sq.",,  30.321990, -81.710100,,,0,
3270,,"Lenox Ave. & Day St.",,  30.321950, -81.710000,,,0,
3271,,"Lenox Ave. & Thompson St.",,  30.321940, -81.715430,,,0,
3273,,"Lenox Ave. & Melba St.",,  30.321807, -81.717698,,,0,
3274,,"3333 Lenox Ave.",,  30.321950, -81.713060,,,0,
3275,,"3530 Lenox Ave.",,  30.321870, -81.715020,,,0,
3276,,"3336 Lenox Ave.",,  30.321900, -81.713320,,,0,
3287,,"Cassat Ave. & Waller St.",,  30.320600, -81.730720,,,0,
3289,,"Cassat Ave. & Rosselle St.",,  30.318750, -81.730830,,,0,
3290,,"Cassat Ave. & Rosselle St.",,  30.318490, -81.730680,,,0,
3291,,"Lane Ave. & Beaver St.",,  30.325533, -81.751887,,,0,
3292,,"Lane Ave. & Julie Ave.",,  30.322050, -81.752000,,,0,
3293,,"Lane Ave. & Highway Ave.",,  30.320600, -81.752000,,,0,
3294,,"Lane Ave. & Stuart Ave.",,  30.318300, -81.752070,,,0,
3295,,"Lane Ave. & Highway Ave.",,  30.318389, -81.751854,,,0,
3308,,"Edgewood Ave. & Edgewood Ct.",,  30.325430, -81.730940,,,0,
3309,,"Edgewood Ave. & Edgewood Ct.",,  30.325100, -81.730730,,,0,
3322,,"Beaver St. & King St.",,  30.332920, -81.697600,,,0,
3323,,"Beaver St. & King St.",,  30.333120, -81.697200,,,0,
3324,,"Beaver St. & Carrie St.",,  30.333620, -81.693400,,,0,
3325,,"Beaver St. & Carrie St.",,  30.333837, -81.692937,,,0,
3326,,"2050 W Beaver St.",,  30.333522, -81.694911,,,0,
3327,,"Beaver St. & Baker Ave.",,  30.334100, -81.690409,,,0,
3329,,"1820 Beaver St.",,  30.334279, -81.690103,,,0,
3334,,"Beaver St. & Rushing St.",,  30.336210, -81.679100,,,0,
3335,,"Beaver St. & Rushing St.",,  30.336122, -81.678892,,,0,
3337,,"Beaver St. & Acorn St.",,  30.335346, -81.682416,,,0,
3338,,"Beaver St. & Acorn St.",,  30.335610, -81.682550,,,0,
3340,,"Beaver St. & Tyler St.",,  30.335825, -81.680480,,,0,
3342,,"Beaver St. & Tyler St.",,  30.335970, -81.680510,,,0,
3344,,"Beaver St. & Blanche St.",,  30.336070, -81.675200,,,0,
3348,,"Beaver St. & Blanche St.",,  30.336078, -81.674847,,,0,
3350,,"Beaver St. & Eaverson St.",,  30.335545, -81.673819,,,0,
3352,,"Beaver St. & Cleveland St.",,  30.334969, -81.671953,,,0,
3354,,"J.T.A. Admin.Building",,  30.331100, -81.676280,,,0,
3356,,"McDuff Ave. & Beaver St.",,  30.331590, -81.705509,,,0,
3357,,"McDuff Ave. & Beaver St.",,  30.331843, -81.705619,,,0,
3358,,"McDuff Ave. & Strickland St.",,  30.328332, -81.705623,,,0,
3359,,"McDuff Ave. & Strickland St.",,  30.329620, -81.705500,,,0,
3361,,"McDuff Ave. & Rexford St.",,  30.328126, -81.705439,,,0,
3363,,"McDuff Ave. & Commonwealth Ave.",,  30.337939, -81.705632,,,0,
3364,,"McDuff Ave. & Coleman",,  30.337809, -81.705446,,,0,
3365,,"5th St. & Mc Duff Ave.",,  30.343860, -81.706500,,,0,
3400,,"Broadway Ave. & Suemac Rd.",,  30.332193, -81.758674,,,0,
3401,,"951 Suemac Rd.",,  30.334813, -81.759165,,,0,
3402,,"Broadway Ave. & Lane Ave.",,  30.331938, -81.752379,,,0,
3403,,"6775 Commonwealth Ave.",,  30.335557, -81.758315,,,0,
3404,,"6831 Commonwealth Ave.",,  30.335660, -81.756000,,,0,
3405,,"Commonwealth Ave. & Clayton Rd.",,  30.335860, -81.754900,,,0,
3406,,"Commonwealth Ave. & Lane Ave.",,  30.335890, -81.751500,,,0,
3407,,"Commonwealth Ave. & Lane Ave.",,  30.335693, -81.752338,,,0,
3408,,"Commonwealth Ave. & Ellis Rd.",,  30.335840, -81.743900,,,0,
3409,,"5871 Commonwealth Ave.",,  30.336102, -81.744348,,,0,
3420,,"Commonwealth Ave. & Almeda St.",,  30.336636, -81.699054,,,0,
3421,,"Commonwealth Ave. & Penton St.",,  30.336516, -81.699413,,,0,
3423,,"Commonwealth Ave. & McDuff Ave.",,  30.336660, -81.705280,,,0,
3424,,"Commonwealth Ave. & Westbrook Cir.",,  30.336544, -81.704462,,,0,
3425,,"Commonwealth Ave. & Westbrook Cir.",,  30.336604, -81.702544,,,0,
3426,,"2416 Commonwealth Ave.",,  30.336488, -81.702562,,,0,
3450,,"298 Lane Ave.",,  30.326553, -81.752067,,,0,
3451,,"Commonwealth Ave. & Melson Ave.",,  30.336590, -81.723100,,,0,
3454,,"Commonwealth Ave. & Detroit St.",,  30.336630, -81.718100,,,0,
3455,,"Commonwealth Ave. & Detroit St.",,  30.336540, -81.718800,,,0,
3458,,"Commonwealth Ave. & Edgewood Ave.",,  30.336508, -81.730816,,,0,
3459,,"Commonwealth Ave. & West Palm Ave.",,  30.336390, -81.728900,,,0,
3460,,"Commonwealth Ave. & West Palm Ave.",,  30.336480, -81.728600,,,0,
3461,,"Commonwealth Ave. & Hood Ave.",,  30.336550, -81.726000,,,0,
3462,,"Commonwealth Ave. & Hood Ave.",,  30.336468, -81.725809,,,0,
3463,,"Commonwealth Ave. & McTyre Ct.",,  30.336540, -81.715120,,,0,
3484,,"12th St. & West Palm Ave.",,  30.350940, -81.730462,,,0,
3485,,"12th St. & Edgewood Ave.",,  30.351625, -81.730955,,,0,
3491,,"12th St. & Melson Ave.",,  30.350742, -81.722782,,,0,
3492,,"12th St. & Melson Ave.",,  30.350960, -81.723190,,,0,
3495,,"5th St. & McDuff Ave. N",,  30.343863, -81.707100,,,0,
3497,,"5th St. & Huron St.",,  30.343956, -81.714417,,,0,
3508,,"Edgewood Ave. & Rockwood Dr.",,  30.329340, -81.730790,,,0,
3509,,"Edgewood Ave. & Beaver St. sb ns",,  30.328259, -81.731164,,,0,
3510,,"Edgewood Ave. & Broadway Ave.",,  30.332274, -81.730884,,,0,
3511,,"Edgewood Ave. & Broadway Ave.",,  30.333020, -81.731130,,,0,
3512,,"Edgewood Ave. & Andrews St.",,  30.335483, -81.730906,,,0,
3513,,"Edgewood Ave. & Commonwealth (Plaza)",,  30.337811, -81.731213,,,0,
3517,,"Edgewood Ave. & 1st St.",,  30.340490, -81.731210,,,0,
3518,,"Edgewood Ave. & 1st St. ns nb",,  30.340005, -81.730859,,,0,
3519,,"Edgewood Ave. & 5th St.",,  30.343740, -81.730990,,,0,
3520,,"Edgewood Ave. & Acacia St.",,  30.346660, -81.731000,,,0,
3522,,"Edgewood Ave. & 20th St.",,  30.355710, -81.731060,,,0,
3523,,"Edgewood Ave. & Edward Ave.",,  30.354160, -81.731277,,,0,
3524,,"Edgewood Ave. & opp. Edward Ave.",,  30.353837, -81.731007,,,0,
3525,,"Edgewood Ave. & Wacissa Ave.",,  30.356484, -81.731361,,,0,
3529,,"Edgewood Ave. & Shenandoah Ave.",,  30.359980, -81.731120,,,0,
3530,,"Edgewood Ave. & Shenandoah Ave.",,  30.360340, -81.731353,,,0,
3532,,"Edgewood Ave. & Ina St.",,  30.363520, -81.730290,,,0,
3533,,"Edgewood Ave. & New Kings Rd.",,  30.370880, -81.723430,,,0,
3534,,"Edgewood Ave. & Kinnon Dr.",,  30.371350, -81.722860,,,0,
3535,,"Edgewood Ave. & Bagley Rd.",,  30.372880, -81.719000,,,0,
3536,,"3111 W Edgewood Ave.",,  30.373940, -81.716360,,,0,
3537,,"3060 Edgewood Ave.",,  30.373800, -81.716440,,,0,
3538,,"Edgewood Ave. & Cleveland Rd.",,  30.374955, -81.713559,,,0,
3539,,"Edgewood Ave. & Cleveland Rd. sb  ns",,  30.374940, -81.713980,,,0,
3541,,"Edgewood Ave. & opp. Floradale Dr.",,  30.376666, -81.710942,,,0,
3542,,"Edgewood Ave. & Floradale Dr.",,  30.376378, -81.710990,,,0,
3547,,"Edgewood Ave. & Carnation Rd.",,  30.378963, -81.705443,,,0,
3548,,"Edgewood Ave. & Carnation Rd.",,  30.378776, -81.706115,,,0,
3549,,"Edgewood Ave. & Iris Blvd.",,  30.378930, -81.702940,,,0,
3552,,"Edgewood Ave. & Avenue B",,  30.378896, -81.699056,,,0,
3555,,"Edgewood Ave. & Avenue B. nb fs",,  30.378755, -81.698669,,,0,
3559,,"Edgewood Ave. & Moncrief Rd.",,  30.380011, -81.695752,,,0,
3560,,"Edgewood Ave. & Moncrief Rd.",,  30.379800, -81.696240,,,0,
3561,,"Edgewood Ave. & Diamond St.",,  30.382390, -81.693080,,,0,
3562,,"Edgewood Ave. & Diamond St.",,  30.382090, -81.693290,,,0,
3564,,"1800 Edgewood Ave.",,  30.385310, -81.688850,,,0,
3565,,"Edgewood Ave. & Gainesville Ave.",,  30.386600, -81.686650,,,0,
3566,,"Edgewood Ave. & Bunker Hill Blvd. fs",,  30.392517, -81.670384,,,0,
3569,,"Amtrak Station",,  30.365957, -81.723951,,,0,
3570,,"New Kings Rd. & Clifford Ln.",,  30.366379, -81.721428,,,0,
3572,,"5906 New Kings Rd.",,  30.369290, -81.723540,,,0,
3573,,"45th St. & Westside Blvd.",,  30.366359, -81.718290,,,0,
3575,,"45th St. & Hilton St.",,  30.367010, -81.717203,,,0,
3576,,"45th St. & Vernon Rd",,  30.368997, -81.712348,,,0,
3577,,"45th St. & Cleveland Rd.",,  30.369910, -81.710200,,,0,
3578,,"Cleveland Rd. & 45th St.",,  30.369930, -81.710050,,,0,
3579,,"45th St. & Calloway Cir.",,  30.370270, -81.709300,,,0,
3580,,"45th St. & Cleveland Rd.",,  30.370150, -81.709900,,,0,
3582,,"45th St. & Sunny Acres Dr.",,  30.371210, -81.707300,,,0,
3585,,"45th St. & C St.",,  30.371392, -81.701482,,,0,
3586,,"2584 45th St.",,  30.371404, -81.705848,,,0,
3587,,"45th St. & Mays Dr.",,  30.371425, -81.703699,,,0,
3588,,"45th St. & Minosa Cir.",,  30.371500, -81.704610,,,0,
3590,,"45th St. & Avenue B",,  30.371500, -81.699400,,,0,
3591,,"2160 45th St.",,  30.371473, -81.696207,,,0,
3594,,"2026 45th St.",,  30.371562, -81.693144,,,0,
3595,,"45th St. & Avenue C St.",,  30.371611, -81.701158,,,0,
3598,,"45th St. & Spring Grove Ave.",,  30.371620, -81.690319,,,0,
3599,,"1800 45th St.",,  30.371655, -81.687871,,,0,
3601,,"45th St. & OPP. Dodge Rd.",,  30.371720, -81.688232,,,0,
3613,,"New Kings Rd. & Richardson Rd.",,  30.381540, -81.730260,,,0,
3614,,"7157 New Kings Rd.",,  30.385380, -81.732390,,,0,
3617,,"Kings Rd. & Seminary St.",,  30.346370, -81.690000,,,0,
3618,,"Kings Rd. & Spires Ave.",,  30.345773, -81.688445,,,0,
3619,,"Kings Rd. & Spires Ave.",,  30.345830, -81.688290,,,0,
3621,,"Edward Waters College",,  30.344410, -81.684600,,,0,
3622,,"Edward Waters College",,  30.344460, -81.685000,,,0,
3623,,"Kings Rd. & Cleveland St.",,  30.338490, -81.670700,,,0,
3624,,"Kings Rd. & Cleveland St.",,  30.338740, -81.671300,,,0,
3626,,"Kings Rd. & Fairfax St.",,  30.345104, -81.686440,,,0,
3627,,"Kings Rd. & Penton St.",,  30.350140, -81.699710,,,0,
3628,,"Kings Rd. & Penton St.",,  30.350210, -81.699610,,,0,
3630,,"Kings Rd. & Canal St.",,  30.349160, -81.696890,,,0,
3631,,"Kings Rd. & Flag St.",,  30.348430, -81.695260,,,0,
3632,,"Kings Rd. & Flag St.",,  30.348480, -81.695110,,,0,
3635,,"Kings Rd. & University St.",,  30.346891, -81.691403,,,0,
3636,,"Kings Rd. & University St.",,  30.346850, -81.690950,,,0,
3637,,"Kings Rd. & Tyler St.",,  30.343410, -81.682400,,,0,
3638,,"Kings Rd. & Tyler St.",,  30.342880, -81.680693,,,0,
3639,,"Kings Rd. & Whitner St.",,  30.342510, -81.680130,,,0,
3643,,"Kings Rd. & Blue Ave.",,  30.342015, -81.678416,,,0,
3644,,"Kings Rd. & Myrtle Ave.",,  30.340680, -81.675060,,,0,
3646,,"Kings Rd. & Myrtle Ave.",,  30.341010, -81.676344,,,0,
3654,,"Fairfax St. & 15th St.",,  30.352510, -81.686270,,,0,
3655,,"Fairfax St. & 17th St.",,  30.353830, -81.686320,,,0,
3656,,"Fairfax St. & 20th St.",,  30.355710, -81.686370,,,0,
3657,,"Fairfax St. & 20th St.",,  30.356060, -81.686430,,,0,
3658,,"Fairfax St. & 23rd St.",,  30.357820, -81.686390,,,0,
3659,,"Fairfax St. & 23rd St.",,  30.358120, -81.686480,,,0,
3661,,"Fairfax St. & 26th St.",,  30.359870, -81.686400,,,0,
3662,,"Fairfax St. & opp. 16th St.",,  30.353420, -81.686390,,,0,
3690,,"Myrtle Ave. & 8th St.",,  30.347080, -81.675600,,,0,
3692,,"2041 Myrtle Ave.",,  30.349770, -81.675690,,,0,
3693,,"Myrtle Ave. & Wolfe St.",,  30.342010, -81.675630,,,0,
3694,,"Myrtle Ave. & Hart St.",,  30.341920, -81.675550,,,0,
3697,,"Myrtle Ave. & 6th St.",,  30.344360, -81.675700,,,0,
3698,,"Myrtle Ave. & Steele St.",,  30.344540, -81.675600,,,0,
3700,,"Myrtle Ave. & 8th St.",,  30.347630, -81.675750,,,0,
3704,,"Myrtle Ave. & 11th St.",,  30.349900, -81.675800,,,0,
3705,,"Myrtle Ave. & 13th St.",,  30.351120, -81.675750,,,0,
3706,,"Myrtle Ave. & 13th St.",,  30.351660, -81.675860,,,0,
3709,,"Myrtle Ave. & 18th St.",,  30.354850, -81.675940,,,0,
3710,,"Myrtle Ave. & 19th St. fs",,  30.355228, -81.675827,,,0,
3711,,"Myrtle Ave. & 21st St.",,  30.356520, -81.675880,,,0,
3712,,"Myrtle Ave. & Moncrief Rd. ns nb",,  30.359598, -81.675938,,,0,
3713,,"Myrtle Ave. & 20th St.",,  30.356560, -81.675950,,,0,
3720,,"8th St. & Payne Ave",,  30.347389, -81.671085,,,0,
3723,,"Payne Ave. & 8th St.",,  30.347490, -81.671600,,,0,
3731,,"13th St. & Connally Ave.",,  30.351170, -81.695521,,,0,
3733,,"13th St. & McMillan St.",,  30.351149, -81.691719,,,0,
3734,,"13th St. & Spires Ave.",,  30.351239, -81.688641,,,0,
3742,,"13th St. & Payne Ave.",,  30.351450, -81.671400,,,0,
3750,,"13th St. & Canal St.",,  30.351302, -81.696906,,,0,
3752,,"13th St. & McMillan St.",,  30.351310, -81.691380,,,0,
3756,,"13th St. & opp. Spires Ave.",,  30.351370, -81.688090,,,0,
3762,,"Division St. & Kings Rd.",,  30.351250, -81.701445,,,0,
3763,,"Division St. & Rickenbacker St.",,  30.354604, -81.701486,,,0,
3764,,"Division St. & 20th St.",,  30.357685, -81.701494,,,0,
3765,,"Division St. & 23rd St.",,  30.357730, -81.701300,,,0,
3766,,"Division St. & 25th St.",,  30.359407, -81.701545,,,0,
3768,,"Division St. & 13th St.",,  30.351877, -81.701303,,,0,
3774,,"Division St. & opp. Stinson St.",,  30.355747, -81.701291,,,0,
3775,,"26th St. & Spires Ave.",,  30.360068, -81.688086,,,0,
3776,,"26th St. & Canal St.",,  30.359820, -81.697410,,,0,
3777,,"26th St. & Almeda St.",,  30.359880, -81.698590,,,0,
3781,,"Stuart St. & 27th St.",,  30.361123, -81.670776,,,0,
3782,,"Stuart St. & 29th St.",,  30.362262, -81.670648,,,0,
3783,,"Stuart St. & 29th st.",,  30.362581, -81.670819,,,0,
3784,,"Stuart St. & 31st St.",,  30.364184, -81.670654,,,0,
3785,,"Stuart St. & Golfair Blvd sb fs",,  30.364076, -81.670857,,,0,
3796,,"Moncrief Rd. & OPP W 36th St.",,  30.366929, -81.681008,,,0,
3833,,"Almeda St. & 25th St.",,  30.360070, -81.698800,,,0,
3835,,"Almeda St. & 30th St.",,  30.362060, -81.698760,,,0,
3836,,"Almeda St. & 30th St.",,  30.362390, -81.698850,,,0,
3837,,"Almeda St. & 33rd St.",,  30.364390, -81.698800,,,0,
3839,,"Avenue B & opp. D St.",,  30.375380, -81.699030,,,0,
3840,,"Avenue B & opp Tuskegee Rd.",,  30.373210, -81.699080,,,0,
3841,,"Avenue B & opp. 41st St.",,  30.368320, -81.699030,,,0,
3843,,"Avenue B & opp. 33rd St.",,  30.364839, -81.699001,,,0,
3844,,"Avenue B & 39th St.",,  30.366030, -81.698840,,,0,
3845,,"Avenue B & opp. 39th St.",,  30.366749, -81.699084,,,0,
3846,,"Avenue B & 41st St.",,  30.367886, -81.698802,,,0,
3847,,"Avenue B & 43rd St.",,  30.369748, -81.698850,,,0,
3848,,"Avenue B & 43rd St.",,  30.369630, -81.699050,,,0,
3849,,"Avenue B & 45th St.",,  30.371328, -81.698849,,,0,
3850,,"Avenue B & 45th St.",,  30.371584, -81.699052,,,0,
3851,,"Avenue B & Benedict Rd.",,  30.377710, -81.699080,,,0,
3852,,"Avenue B & Butler Ave.",,  30.377770, -81.699200,,,0,
3853,,"Avenue B & D St.",,  30.375580, -81.699150,,,0,
3854,,"Avenue B & Tuskegee Rd.",,  30.373040, -81.699010,,,0,
3856,,"Avenue B & Edgewood Ave.",,  30.379352, -81.699094,,,0,
3857,,"Avenue B & Edgewood Ave.",,  30.379443, -81.699237,,,0,
3858,,"25th St. & Marland St.",,  30.359560, -81.704000,,,0,
3860,,"Marlo St. & 25th St.",,  30.359750, -81.705100,,,0,
3862,,"Marlo St. & 30th St.",,  30.362210, -81.705160,,,0,
3863,,"Marlo St. & 30th St.",,  30.362027, -81.705036,,,0,
3864,,"Cleveland Rd. & Bethlehem Steel",,  30.364456, -81.706182,,,0,
3867,,"Cleveland Rd. & Anther Ct.",,  30.372006, -81.711797,,,0,
3868,,"Cleveland Rd. & Bunche Dr.",,  30.366033, -81.706993,,,0,
3870,,"Cleveland Rd. & Hamilton Cir.",,  30.367322, -81.708144,,,0,
3871,,"Cleveland Rd. & King Cole Dr.",,  30.367719, -81.708356,,,0,
3879,,"Cleveland Rd. & Edgewood Ave.",,  30.374500, -81.713880,,,0,
3882,,"Cleveland Rd. & Mc Daniel Dr.",,  30.377594, -81.715753,,,0,
3885,,"Cleveland Rd. & Francis Rd.",,  30.376318, -81.714968,,,0,
3888,,"Cleveland Rd. & N. Katanga Dr. N",,  30.378890, -81.716290,,,0,
3891,,"Cleveland Rd. & Owen Ave.",,  30.380990, -81.716080,,,0,
3892,,"Cleveland Rd. & Trenton Dr.",,  30.381190, -81.716160,,,0,
3895,,"Cleveland Rd. & Santee Rd. fs nb",,  30.384245, -81.715707,,,0,
3897,,"Cleveland Rd. & Roth Dr.",,  30.384400, -81.715840,,,0,
3898,,"Cleveland Rd. & Moncrief Rd.",,  30.386820, -81.715640,,,0,
3899,,"Cleveland Rd. & Moncrief Rd.",,  30.386700, -81.715550,,,0,
3931,,"Moncrief Rd. & Woodland St. West",,  30.354690, -81.672390,,,0,
3932,,"Moncrief Rd. & 19th St.",,  30.355140, -81.672600,,,0,
3935,,"Moncrief Rd. & 22nd St.",,  30.357330, -81.674100,,,0,
3937,,"2516 Moncrief Rd.",,  30.352780, -81.671130,,,0,
3938,,"2535 Moncrief Rd.",,  30.352710, -81.670930,,,0,
3942,,"Moncrief Rd. & 21st St.",,  30.356653, -81.673790,,,0,
3947,,"Moncrief Rd. & W 24th street fs",,  30.359040, -81.675350,,,0,
3950,,"Moncrief Rd. & 29th St.",,  30.362128, -81.677453,,,0,
3951,,"Moncrief Rd. & 26th St.",,  30.361043, -81.676887,,,0,
3952,,"Moncrief Rd. & 30th St.",,  30.362996, -81.678216,,,0,
3961,,"Moncrief Rd. & 33rd St.",,  30.364786, -81.679337,,,0,
3962,,"Moncrief Rd. & 34th St.",,  30.365281, -81.679947,,,0,
3963,,"Moncrief Rd. & 36th St.",,  30.367310, -81.681500,,,0,
3965,,"4821 Moncrief Rd.",,  30.368643, -81.682177,,,0,
3967,,"Moncrief Rd. & Glenvale Rd.",,  30.370813, -81.685111,,,0,
3968,,"Moncrief Rd. & 45th St.",,  30.370781, -81.684828,,,0,
3969,,"5542 Moncrief Rd.",,  30.372563, -81.687930,,,0,
3971,,"4810 Moncrief Rd.",,  30.369140, -81.682960,,,0,
3974,,"Moncrief Rd. & Sycamore St.",,  30.373341, -81.688395,,,0,
3976,,"Moncrief Rd. & Meharry Ave.",,  30.375270, -81.690410,,,0,
3979,,"Moncrief Rd. & Edgewood Ave. ns",,  30.380343, -81.695220,,,0,
3981,,"Moncrief Rd. & Dean A. Ave.",,  30.379680, -81.694680,,,0,
3983,,"Avenue B & Moncrief Rd.",,  30.381477, -81.698983,,,0,
3987,,"Moncrief Rd. & Dostie Dr.",,  30.390330, -81.727500,,,0,
3988,,"Moncrief Rd. & Richardson Rd.",,  30.389608, -81.723910,,,0,
3989,,"Moncrief Rd. & Soutel Dr.",,  30.391550, -81.730200,,,0,
3991,,"Moncrief Rd. & Ken Knight Dr.E",,  30.387926, -81.716066,,,0,
3994,,"Moncrief Rd. & Cleveland Rd. ns eb",,  30.387890, -81.716420,,,0,
4062,,"Van Gundy Rd. & Champlain Rd.",,  30.390370, -81.701860,,,0,
4067,,"Van Gundy Rd. & Restlawn Dr.",,  30.390882, -81.697491,,,0,
4068,,"Champlain Rd. & Van Gundy Rd.",,  30.390390, -81.702170,,,0,
4069,,"Champlain Rd. & Winton Dr.",,  30.391860, -81.703150,,,0,
4071,,"3507 Winton Dr.",,  30.391115, -81.704563,,,0,
4072,,"3516 Winton Dr.",,  30.390454, -81.705376,,,0,
4073,,"3535 Winton Dr.",,  30.389910, -81.706350,,,0,
4074,,"Winton Dr. & Champlain Rd.",,  30.391810, -81.703320,,,0,
4075,,"Winton Dr. & Ribault Scenic Dr.",,  30.388900, -81.708070,,,0,
4077,,"Ribault Scenic Dr. & Winton Dr.",,  30.388857, -81.708023,,,0,
4078,,"3726 Ribault Scenic Dr.",,  30.390030, -81.709530,,,0,
4079,,"Ribault Scenic Dr. & Elbert Ave.",,  30.391519, -81.711247,,,0,
4080,,"3610 Ribault Scenic Dr.",,  30.391390, -81.710900,,,0,
4082,,"Ribault Scenic Dr. & Howell Dr.",,  30.392635, -81.712207,,,0,
4083,,"Howell Dr. & Harbor View Dr.",,  30.395855, -81.714600,,,0,
4084,,"Howell Dr. & Clyde Dr.",,  30.398450, -81.715910,,,0,
4085,,"Howell Dr. & Harbor View Dr.",,  30.396110, -81.714790,,,0,
4086,,"Clyde Dr. & Howell Dr.",,  30.398340, -81.716260,,,0,
4089,,"Clyde Dr. & Darlington Dr.",,  30.398770, -81.719190,,,0,
4090,,"Clyde Dr. & Darlington Dr.",,  30.398700, -81.718900,,,0,
4091,,"Clyde Dr. & Rochdale Rd.",,  30.400500, -81.722080,,,0,
4092,,"8767 Norfolk Blvd.",,  30.400660, -81.719720,,,0,
4093,,"8951 Norfolk Blvd.",,  30.402760, -81.719800,,,0,
4095,,"Norfolk Blvd. & Portsmouth Ave.",,  30.407440, -81.722250,,,0,
4096,,"Norfolk Blvd. & Soutel Dr.",,  30.404620, -81.720670,,,0,
4097,,"Norfolk Blvd. & Suffolk Ave.",,  30.406390, -81.721740,,,0,
4099,,"Portsmouth Ave. & Waynesboro Ave.",,  30.407671, -81.718614,,,0,
4102,,"Roanoke Blvd. & Aberdare Ave.",,  30.410260, -81.722710,,,0,
4103,,"Roanoke Blvd. & Norfolk Blvd.",,  30.410310, -81.724040,,,0,
4105,,"4615 Roanoke Blvd.",,  30.410230, -81.719190,,,0,
4112,,"Devonshire Blvd. & Soutel Dr.",,  30.400387, -81.723677,,,0,
4113,,"Devonshire Blvd. & Fredericksburg Ave.",,  30.402060, -81.726350,,,0,
4114,,"Devonshire Blvd. & Doncaster Ave.",,  30.407200, -81.729400,,,0,
4115,,"Devonshire Blvd. & Portsmouth Ave.",,  30.405820, -81.728560,,,0,
4117,,"9104 Devonshire Blvd.",,  30.403170, -81.727840,,,0,
4135,,"Soutel Dr. & Moncrief Rd.",,  30.392550, -81.729740,,,0,
4136,,"Soutel Dr. & Moncrief Rd.",,  30.392319, -81.731557,,,0,
4137,,"5001 Soutel Dr.",,  30.395750, -81.727111,,,0,
4138,,"5131 Soutel Dr.",,  30.395143, -81.727784,,,0,
4139,,"5059 Soutel Dr.",,  30.397342, -81.725906,,,0,
4143,,"Soutel Dr. & Castle Blvd.",,  30.399940, -81.723920,,,0,
4144,,"4821 Soutel Dr.",,  30.401190, -81.722920,,,0,
4145,,"Soutel Dr. & Clyde Dr.",,  30.400960, -81.722960,,,0,
4146,,"4750 Soutel Dr.",,  30.402720, -81.721520,,,0,
4147,,"4809 Soutel Dr.",,  30.403020, -81.721440,,,0,
4150,,"4338 Soutel Dr.",,  30.404190, -81.716300,,,0,
4151,,"4409 Soutel Dr.",,  30.404310, -81.715590,,,0,
4152,,"Soutel Dr. & Gibson Ave.",,  30.404370, -81.713210,,,0,
4153,,"Soutel Dr. & Victoria Landing Dr.",,  30.404270, -81.712700,,,0,
4154,,"3936 Soutel Dr.",,  30.404340, -81.711190,,,0,
4156,,"3730 Soutel Dr.",,  30.404370, -81.708880,,,0,
4158,,"Soutel Dr. & Ridge Blvd",,  30.404510, -81.707400,,,0,
4159,,"Soutel Dr. & Camphor Dr.",,  30.404420, -81.706530,,,0,
4160,,"Soutel Dr. & Wilton Ave.",,  30.404590, -81.703950,,,0,
4161,,"Soutel Dr. & Dogwood Rd.",,  30.404470, -81.703900,,,0,
4162,,"3304 Soutel Dr.",,  30.404540, -81.702180,,,0,
4163,,"Soutel Dr. & Lingard Ave.",,  30.404640, -81.701570,,,0,
4164,,"Soutel Dr. & Livingston Ave.",,  30.404850, -81.699420,,,0,
4165,,"3105 Soutel Dr.",,  30.405050, -81.699130,,,0,
4166,,"Soutel Dr. & Ribault Ave.",,  30.405560, -81.697520,,,0,
4167,,"Soutel Dr. & 9th Ave.",,  30.406950, -81.694550,,,0,
4168,,"Soutel Dr. & 9th Ave.",,  30.406700, -81.694880,,,0,
4170,,"Soutel Dr. & 5th Ave.",,  30.407820, -81.692220,,,0,
4171,,"Soutel Dr. & 6th Ave.",,  30.407990, -81.692130,,,0,
4172,,"Soutel Dr. & 2nd Ave.",,  30.409090, -81.689480,,,0,
4173,,"Soutel Dr. & 2nd Ave.",,  30.408760, -81.689940,,,0,
4175,,"Soutel Dr. & Ribault Ave.",,  30.405940, -81.697040,,,0,
4177,,"Fouraker Rd. & Old Middleburg Rd.",,  30.262620, -81.781040,,,0,
4179,,"9500 103rd St.",,  30.247646, -81.812635,,,0,
4182,,"Atlantic Blvd. & Seminole Rd.",,  30.324686, -81.405802,,,0,
4185,,"Walmart on Monument",,  30.341107, -81.546839,,,0,
4186,,"3rd  Ave. S. & 3rd St.",,  30.285450, -81.390529,,,0,
4188,,"Paxon High School",,  30.344459, -81.722805,,,0,
4189,,"Colcord Ave. & Garden Cliff Ct.",,  30.326695, -81.603578,,,0,
4190,,"Payne Ave. & 13th St.",,  30.351220, -81.671590,,,0,
4193,,"University Blvd. & Fort Caroline Rd.",,  30.361585, -81.605958,,,0,
4195,,"48th & Main",,  30.375416, -81.652028,,,0,
4201,,"San Marco & Prudential",,  30.316542, -81.660582,,,0,
4573,,"James Weldon Johnson Park",,  30.329480, -81.659746,,,0,
4574,,"Central Station",,  30.327172, -81.662470,,,0,
4575,,"San Marco",,  30.317690, -81.660840,,,0,
4576,,"RiverPlace Station",,  30.317680, -81.656660,,,0,
4577,,"Jefferson Station",,  30.327590, -81.667440,,,0,
4580,,"Southside Blvd. &Buncome Rd.",,  30.284186, -81.558771,,,0,
4581,,"Kona Ave. & Bowlan St.",,  30.322870, -81.570650,,,0,
4584,,"Bowlan St. & Atlantic Blvd.",,  30.314350, -81.569110,,,0,
4585,,"3410 Southside Blvd.",,  30.283890, -81.559550,,,0,
4586,,"Southside Blvd. & Cargal St. ns",,  30.281765, -81.559597,,,0,
4590,,"Merrill Rd. & Herrick Dr.",,  30.351920, -81.579780,,,0,
4592,,"University Blvd. & Ft. Caroline fs nb",,  30.362975, -81.606351,,,0,
4599,,"7109 Merrill Rd.",,  30.352060, -81.579460,,,0,
4614,,"Merrill Rd. & Rogero Rd.",,  30.351664, -81.588617,,,0,
4629,,"Merrill Rd. & Oakcove Ln.",,  30.352013, -81.588894,,,0,
4648,,"26th St. & Canal St.",,  30.359900, -81.696990,,,0,
4655,,"A. Phillip Randolph Blvd. & 1st St. ns nb",,  30.336300, -81.642580,,,0,
4675,,"A. Phlillp Randolph Blvd. & 1st St",,  30.335581, -81.642700,,,0,
4681,,"Lane Ave & Doolittle Rd.",,  30.328329, -81.751804,,,0,
4682,,"Agmac Ave & Broadway Ave",,  30.330543, -81.748815,,,0,
4683,,"Broadway Ave & Lane Ave",,  30.332281, -81.751716,,,0,
4684,,"Agmac Ave & Doolittle Ave",,  30.330595, -81.749278,,,0,
4685,,"Blanding &103rd St.",,  30.246663, -81.742901,,,0,
4696,,"2360 St. John Bluff",,  30.306938, -81.526269,,,0,
4699,,"River Place Blvd. & Flagler Ave. eb",,  30.318621, -81.656147,,,0,
4702,,"South Beach Regional 1",,  30.257455, -81.390639,,,0,
4703,,"South Beach Regional",,  30.257442, -81.391875,,,0,
4704,,"South Beach Parkway Plaza",,  30.254078, -81.389735,,,0,
4711,,"Clay County Park-N- Ride/Black Creek Station",,  30.099886, -81.770365,,,0,
4712,,"Park & Wells",,  30.183467, -81.701983,,,0,
4715,,"Blanding Blvd. & Maggies Ln.",,  30.231113, -81.738957,,,0,
4716,,"Blanding Blvd. & OPP Maggie Ln.",,  30.231186, -81.738663,,,0,
4721,,"9520 Regency Square Blvd. &  Homedepot sb",,  30.327912, -81.549105,,,0,
4722,,"Justina Rd. & Techwood Dr.",,  30.352814, -81.599177,,,0,
4724,,"1139 Kendall Town",,  30.340279, -81.549049,,,0,
4725,,"1150 Kendall Town",,  30.340460, -81.549131,,,0,
4726,,"University Blvd. & Ft. Caroline Rd.",,  30.362693, -81.606530,,,0,
4727,,"Normandy Blvd. & Ellis Rd. ns",,  30.308179, -81.744651,,,0,
4731,,"Moncrief & 23 rd St",,  30.358194, -81.674870,,,0,
4734,,"Jefferson & State",,  30.334907, -81.664514,,,0,
4750,,"Cassat Ave. & Tunis St.",,  30.295403, -81.730236,,,0,
4751,,"Cassat Ave. & Prunty Ave.",,  30.298789, -81.730193,,,0,
4756,,"6600 Youngerman Cir.",,  30.197407, -81.749102,,,0,
4757,,"6500 Youngerman Cir.",,  30.197012, -81.746500,,,0,
4761,,"Blanding Blvd. & Collins Rd.",,  30.205246, -81.739716,,,0,
4762,,"6601 Youngerman Cir.",,  30.197612, -81.749183,,,0,
4764,,"McDuff Ave. & opp. Burke St.",,  30.326966, -81.705565,,,0,
4765,,"Fairfax St. & 13th St.",,  30.351462, -81.686416,,,0,
4767,,"W 45th St & Longleaf St",,  30.368388, -81.713856,,,0,
4768,,"Cleveland Rd south of 45th St",,  30.369504, -81.709853,,,0,
4770,,"Beach Blvd & I-295 East Loop",,  30.286786, -81.526888,,,0,
4780,,"Division St & 25th St",,  30.359429, -81.701407,,,0,
4782,,"Marlo St & Bethlehem Steel",,  30.364363, -81.706038,,,0,
4783,,"Jammes Rd. & Lucente Dr.",,  30.276610, -81.747893,,,0,
4784,,"2506 Jammes Rd.",,  30.273307, -81.747788,,,0,
4792,,"9001 Bridier",,  30.333886, -81.637931,,,0,
4794,," Myrtle Ave. & State St. fs nb",,  30.339507, -81.675633,,,0,
4795,,"University Blvd. & Stanford Rd.",,  30.260932, -81.643667,,,0,
4812,,"Park Ave. & McIntosh Ave.",,  30.167838, -81.701483,,,0,
4813,,"Kingsley Ave. & Plainfield Ave.",,  30.165963, -81.706241,,,0,
4814,,"Kingsley Ave. & Debarry Ave.",,  30.165484, -81.721200,,,0,
4815,,"Kingsley Ave. & Professional Center Dr.",,  30.164877, -81.738430,,,0,
4816,,"Blanding Blvd. & Kingsley Ave.",,  30.163518, -81.747657,,,0,
4820,,"3802 Toledo Rd.",,  30.249976, -81.621269,,,0,
4821,,"St. Augustine & Dupont Ave. ns",,  30.255421, -81.626176,,,0,
4823,,"3874 Toledo Rd",,  30.251757, -81.618174,,,0,
4826,,"Broward Rd. & Motel Pl.",,  30.410355, -81.661083,,,0,
4828,,"Commonwealth Ave. & Melson Ave. ns",,  30.336424, -81.722865,,,0,
4836,,"San Marco Blvd. & Riviera St.",,  30.307120, -81.660122,,,0,
4837,,"McDuff Ave. N & 3rd St. W",,  30.341069, -81.705517,,,0,
4843,,"McDuff Ave. N & 3rd St. W ns",,  30.341204, -81.705612,,,0,
4845,,"San Marco Blvd. & Laverne St. ns",,  30.306873, -81.660142,,,0,
4849,,"Kernan Blvd. & Gehrig Dr.",,  30.276732, -81.494103,,,0,
4850,,"Kernan Blvd. & Hunters Haven Ln.",,  30.271565, -81.495082,,,0,
4853,,"St. Johns Bluff Rd. opp New Covenant Way",,  30.307234, -81.525732,,,0,
4855,,"Southside Blvd. & opp. Square Lake Blvd.",,  30.195383, -81.552001,,,0,
4857,,"UNF Dr. & Alumni Dr. fs",,  30.264029, -81.508466,,,0,
4859,,"Southside Blvd. & Cargal St. fs",,  30.280456, -81.559538,,,0,
4860,,"3190 Edgewood",,  30.372453, -81.719597,,,0,
4861,,"Edgewood & Iris",,  30.378794, -81.703226,,,0,
4862,,"5756 Moncrief Rd",,  30.376918, -81.691963,,,0,
4864,,"9940 Atlantic Blvd",,  30.322537, -81.540674,,,0,
4865,,"Plaza St. & Amberjack Ln. fs eb",,  30.332840, -81.414110,,,0,
4867,,"Atlantic Blvd. & Jork Rd. farside",,  30.309869, -81.612163,,,0,
4870,,"Moncrief & Rutledge",,  30.375421, -81.690206,,,0,
4871,,"Moncrief & Rowe",,  30.377266, -81.691750,,,0,
4872,,"Riverside & Jackson",,  30.322840, -81.671966,,,0,
4878,,"St. Augustine Rd. & Cadiz Ave.",,  30.251026, -81.626129,,,0,
4879,,"Moncrief & Avenue B",,  30.371569, -81.698887,,,0,
4883,,"Eve Dr. & Anders Blvd. ns",,  30.277814, -81.557510,,,0,
4885,,"Eve Dr. & opp Banks Rd. ns",,  30.275080, -81.557947,,,0,
4890,,"6622 Broadway",,  30.332026, -81.755325,,,0,
4891,,"720 Suemac",,  30.332311, -81.759194,,,0,
4892,,"Lane Ave & Bambi",,  30.255019, -81.758460,,,0,
4893,,"2591 Lane Ave",,  30.271143, -81.756219,,,0,
4894,,"1890 Lane Ave",,  30.284136, -81.755039,,,0,
4895,,"427 Lane Ave",,  30.320071, -81.751874,,,0,
4897,,"Beaver St. & opp. Robinson Ave. ns wb",,  30.334274, -81.688719,,,0,
4899,,"North Campus Blvd. & Capper Rd. fs",,  30.427704, -81.712683,,,0,
4900,,"Dunn Ave. & Lem Turner Rd. fs",,  30.438754, -81.698920,,,0,
4902,,"Wonderwood Dr. & SR A1A Farside",,  30.366192, -81.426499,,,0,
4904,,"McCormick Rd. & Ft. Caroline Rd.",,  30.357305, -81.517000,,,0,
4905,,"St. Johns Bluff Rd. & opp. Executive Dr.",,  30.351031, -81.523826,,,0,
4906,,"Atlantic Blvd. & opp. Corporate Square ns",,  30.314724, -81.562053,,,0,
4907,,"Bowlan St. & Kona Ave.",,  30.322720, -81.569684,,,0,
4908,,"9380 103rd St.",,  30.247615, -81.809160,,,0,
4909,,"Acme St. & Jasper Ave. ns",,  30.321654, -81.572923,,,0,
4910,,"Atlantic Blvd. & Penman Rd. fs wb",,  30.324604, -81.412171,,,0,
4911,,"Mayport Rd. & Dutton Island Rd. E fs",,  30.340619, -81.413176,,,0,
4916,,"Mayport Rd. & Fleet Landing Blvd. ns",,  30.351793, -81.413536,,,0,
4917,,"Mayport Rd. & Bull Dairy Rd. fs",,  30.343509, -81.413241,,,0,
4925,,"Mayport Rd. & SR A1A ns",,  30.354162, -81.413570,,,0,
4926,,"SR A1A & Bayshore Dr. ns",,  30.367196, -81.426773,,,0,
4929,,"Wonderwood Dr. & W Regas Dr. ns",,  30.366305, -81.421965,,,0,
4930,,"Wonderwood Dr. & Jackie Ln. ns",,  30.366982, -81.419387,,,0,
4932,,"Atlantic Blvd. & Aquatic Dr. fs",,  30.324340, -81.411803,,,0,
4933,,"5045 Soutel Dr. midblock",,  30.397337, -81.726045,,,0,
4938,,"7003 Wilson",,  30.270030, -81.761959,,,0,
4939,,"3660 Fouraker",,  30.268859, -81.781326,,,0,
4941,,"7064 Wilson",,  30.269876, -81.761560,,,0,
4948,,"Jefferson St. 8th St.",,  30.346117, -81.662640,,,0,
4950,,"Lem Turner & Bessent Dr.",,  30.423920, -81.695444,,,0,
4952,,"103rd St. & Ricker Rd. ns",,  30.248112, -81.772430,,,0,
4953,,"St. Johns Ave. & Ingleside Ave. ns",,  30.296361, -81.704180,,,0,
4959,,"Timuquana Rd. opp Lynn St.",,  30.248087, -81.736096,,,0,
4962,,"27th St. & Myrtle Ave.",,  30.361029, -81.675847,,,0,
4969,,"Edgewood Ave. & Fernandina Ave. fs",,  30.388116, -81.683920,,,0,
4972,,"Edgewood Ave. & Smyrna St. fs",,  30.390158, -81.680687,,,0,
4973,,"Edgewood Ave. & Orlando Ave. ns",,  30.388959, -81.682772,,,0,
4975,,"Edgewood Ave. & Lake Park Dr. ns",,  30.386420, -81.687105,,,0,
4976,,"Edgewood Ave. & Lake Park Dr. fs",,  30.385403, -81.689159,,,0,
4982,,"Atlantic @ Sherry St. mid",,  30.324767, -81.400687,,,0,
4989,,"San Jose Blvd & OPP Addie Ln",,  30.163662, -81.632723,,,0,
4991,,"Florida Ave and 3rd St",,  30.338600, -81.642307,,,0,
4992,,"Maine St & OPP Macon St",,  30.393679, -81.416664,,,0,
4993,,"Maine St & Patrol Rd",,  30.397286, -81.415474,,,0,
4994,,"Maine St & OPP Patrol Rd",,  30.396784, -81.415203,,,0,
4995,,"Maine St & OPP Moale Ave",,  30.382662, -81.411034,,,0,
4996,,"St Johns Ave & Talbot Ave",,  30.297628, -81.702925,,,0,
4997,,"Lem Turner Rd & Bessent Rd",,  30.424218, -81.695772,,,0,
5000,,"6727 Broadway Ave",,  30.332200, -81.755545,,,0,
5001,,"Commonwealth Ave & Peavy Rd",,  30.336070, -81.746142,,,0,
5006,,"W.45th St. & Voorhies Rd.",,  30.371717, -81.690158,,,0,
5011,,"Hendricks Ave. & Emerson St.",,  30.284729, -81.651012,,,0,
5012,,"N. Main St. & E. 1st. St.",,  30.337944, -81.654915,,,0,
5013,,"Ocean St. and Minorcan Way",,  30.390968, -81.432064,,,0,
5014,,"Ocean St. and OPP Minorcan Way",,  30.391249, -81.432021,,,0,
5015,,"Wonderwood Dr. & E Regas Dr. ns",,  30.367844, -81.417986,,,0,
5017,,"Atlantic Blvd. & San Pablo Rd. N.",,  30.321033, -81.451125,,,0,
5019,,"Deercreek Club Rd. & Southside Blvd.",,  30.189682, -81.552888,,,0,
5031,,"Moncrief Rd. & Price Rd. ns wb",,  30.390275, -81.727152,,,0,
5032,,"Palm Ave. & Prudential Dr. ns nb",,  30.315953, -81.662088,,,0,
5033,,"Palm Ave. & Prudential Dr. fs sb",,  30.315840, -81.662249,,,0,
5036,,"Carmichael Ave. & Executive Center Dr. fs sb",,  30.303429, -81.619360,,,0,
5037,,"Lasalle St. & Naldo Ave. ns wb",,  30.308931, -81.655659,,,0,
5038,,"Lasalle St. & San Marco Blvd. ns wb",,  30.308961, -81.660320,,,0,
5039,,"Lasalle St. & Laure Ave. ns eb",,  30.308757, -81.659441,,,0,
5040,,"Lasalle St. & Hendricks Ave. ns eb",,  30.308760, -81.654799,,,0,
5041,,"Kings Ave. & OPP Fulton Pl. mb nb",,  30.308642, -81.647858,,,0,
5042,,"Kings Ave. & Manning St. ns nb",,  30.311061, -81.652242,,,0,
5043,,"Kings Ave. & Edwin St. ns sb",,  30.310676, -81.651783,,,0,
5044,,"Kings Ave. & Fulton Pl. ns sb",,  30.308597, -81.648041,,,0,
5045,,"Forest Blvd & Antioch Rd. ns nb",,  30.282432, -81.544008,,,0,
5046,,"Forest Blvd & Beach Blvd ns nb",,  30.286530, -81.544148,,,0,
5047,,"Forest Blvd & Beach Blvd fs sb",,  30.286509, -81.544254,,,0,
5048,,"Forest Blvd &  opp Antioch Rd. fs sb",,  30.282660, -81.544163,,,0,
5049,,"Huffman Blvd. & Tulip Cir. ns nb",,  30.294448, -81.504884,,,0,
5050,,"Huffman Blvd. & opp. Tulip Cir. ns sb",,  30.294632, -81.505047,,,0,
5051,,"Huffman Blvd. & Alden Rd. ns nb",,  30.301907, -81.505034,,,0,
5052,,"103rd St. & Firestone Rd. fs wb",,  30.248488, -81.764893,,,0,
5053,,"103rd St. & Ricker Rd. ns wb",,  30.248394, -81.772946,,,0,
5055,,"Alden Rd. & Huffman Blvd. ns eb",,  30.301909, -81.506402,,,0,
5056,,"Alden Rd. & Sandalwood Dr. fs wb",,  30.301583, -81.516268,,,0,
5057,,"Alden Rd. & Sandalwood Dr. fs eb",,  30.301386, -81.515329,,,0,
5058,,"Alden Rd. & St. Johns Bluff Rd. fs eb",,  30.301070, -81.524323,,,0,
5059,,"Alden Rd. & St. Johns Bluff Rd. ns wb",,  30.301315, -81.524078,,,0,
5062,,"Baymeadows Way & Baymeadows Way W. mid nb",,  30.231768, -81.584220,,,0,
5063,,"Baymeadows Way & Baycenter Dr. fs sb",,  30.228900, -81.583238,,,0,
5064,,"Timuquana Rd. & Catoma St. fs wb",,  30.247502, -81.722427,,,0,
5065,,"Timuquana Rd. & Catoma St. ns eb",,  30.247329, -81.722456,,,0,
5066,,"Craven Rd & Sunbeam Rd. ns sb",,  30.206294, -81.600319,,,0,
5067,,"Craven Rd & Sunbeam Rd. fs nb",,  30.206489, -81.600182,,,0,
5068,,"Craven Rd & Opp. Craven Rd. ns nb",,  30.215215, -81.602052,,,0,
5069,,"Craven Rd &  Craven Rd. fs sb",,  30.215194, -81.602181,,,0,
5070,,"Craven Rd & Baymeadows Rd. ns nb",,  30.220187, -81.600176,,,0,
5071,,"Craven Rd & Baymeadows Rd. fs sb",,  30.219851, -81.600356,,,0,
5072,,"Merrill Rd. & Cesery Blvd. fs eb",,  30.351650, -81.596609,,,0,
5075,,"Merrill Rd. & Cesery Blvd. ns wb",,  30.351843, -81.596338,,,0,
5087,,"Edgewood at 12th St nb ns",,  30.350831, -81.730893,,,0,
5090,,"Timuquana Rd. & Marathon Pwky ns eb",,  30.247347, -81.727001,,,0,
5091,,"Timuquana Rd. & opp. Marathon Pwky mb wb",,  30.247482, -81.726668,,,0,
5093,,"Lenox & opp. Melba St. mid eb",,  30.321902, -81.718058,,,0,
5094,,"Blanding Blvd. & Confederate Pt. ns sb",,  30.266912, -81.737721,,,0,
5095,,"Blanding Blvd. & Harlow Blvd. ns sb",,  30.262061, -81.740032,,,0,
5096,,"Blanding Blvd. & Claret Dr. ns sb",,  30.253494, -81.743067,,,0,
5098,,"Blanding Blvd. & Wesconnett Blvd. fs nb",,  30.235968, -81.739786,,,0,
5099,,"Blanding Blvd. & Goodman St. ns nb",,  30.241446, -81.741839,,,0,
5101,,"Blanding Blvd. & Lynnwood Ave. ns nb",,  30.250149, -81.742997,,,0,
5102,,"Blanding Blvd. & opp. Claret Dr. mb nb",,  30.253307, -81.742973,,,0,
5103,,"Blanding Blvd. & Wesconnett Blvd. ns nb",,  30.261340, -81.740198,,,0,
5104,,"Old Middleburg Rd. & McGlothin St. fs nb",,  30.252528, -81.785736,,,0,
5105,,"Old Middleburg Rd. & Noroad fs nb",,  30.255344, -81.785841,,,0,
5106,,"Old Middleburg Rd. & Steamboat Springs Dr. ns nb",,  30.258484, -81.783890,,,0,
5111,,"Commonwealth Ave. &  Lafayette Dr. ns eb",,  30.336088, -81.739412,,,0,
5112,,"Commonwealth Ave. & Reynolds Ln. ns eb",,  30.336230, -81.735343,,,0,
5113,,"Commonwealth Ave. & Odessa Dr. fs wb",,  30.336189, -81.739884,,,0,
5114,,"Commonwealth Ave. & opp. Reynolds Ln. ns wb",,  30.336330, -81.735138,,,0,
5115,,"Edgewood Ave. & W. 12th St. fs sb",,  30.349809, -81.731414,,,0,
5116,,"Edgewood Ave. & Lucille Dr. fs sb",,  30.347225, -81.731461,,,0,
5117,,"5th St. & Huron St. ns eb",,  30.343748, -81.714339,,,0,
5118,,"Edgewood Ave. & McLendon St. ns sb",,  30.362973, -81.730828,,,0,
5119,,"Bay St. & Jefferson St. fs wb",,  30.327729, -81.667048,,,0,
5120,,"Edgewood Ave. & Lem Turner Rd. ns nb",,  30.390735, -81.679532,,,0,
5121,,"Edgewood Ave. & Calvin St. fs nb",,  30.392177, -81.674657,,,0,
5122,,"Edgewood Ave. & Calvin St. ns sb",,  30.392388, -81.674846,,,0,
5123,,"Edgewood Ave. & Bunker Hill Blvd. ns nb",,  30.392361, -81.669963,,,0,
5124,,"26th St. & Fairfax St. ns eb",,  30.359985, -81.686696,,,0,
5127,,"Florida Ave. & 3rd St. ns nb",,  30.338300, -81.642156,,,0,
5128,,"Florida Ave. & 5th St. ns nb",,  30.341860, -81.642196,,,0,
5129,,"Broward Rd. & OPP. Motel Pl. sb",,  30.410593, -81.661289,,,0,
5130,,"A. Philip Randolph & Odessa St. ns nb",,  30.332710, -81.642476,,,0,
5131,,"8th St. & Florida Ave. fs nb",,  30.345002, -81.641972,,,0,
5132,,"Commonwealth Ave. & Superior St. fs eb",,  30.336479, -81.709547,,,0,
5133,,"Commonweatlh Ave. & Superior St. ns wb",,  30.336771, -81.709539,,,0,
5134,,"Commonweatlh Ave. & Huron St. fs wb",,  30.336758, -81.714307,,,0,
5136,,"Target & Square Lake Blvd. ns nb",,  30.194757, -81.550293,,,0,
5137,,"Moncrief Rd. & Restlawn Dr. ns nb",,  30.382443, -81.698948,,,0,
5138,,"Moncrief Rd. & Raines Ave. ns nb",,  30.383282, -81.705208,,,0,
5139,,"Moncrief Rd. & Robert C. Weaver Dr. ns nb",,  30.385718, -81.711432,,,0,
5140,,"Moncrief Rd. & Winton Dr. ns sb",,  30.386091, -81.712518,,,0,
5141,,"Moncrief Rd. & Raines Ave. ns sb",,  30.383222, -81.705433,,,0,
5142,,"Moncrief Rd. & Restlawn Dr. fs sb",,  30.382282, -81.698882,,,0,
5147,,"Roanoke Ave. & Evesham Rd. ns wb",,  30.408892, -81.728434,,,0,
5148,,"Bridier St. & Jessie St. fs nb",,  30.333876, -81.637715,,,0,
5149,,"E. 1st St. & Van Buren St. ns wb",,  30.336517, -81.641086,,,0,
5150,,"E. 1st St. & Opp. Van Buren St. mid eb",,  30.336446, -81.640977,,,0,
5151,,"E. 1st St. & Ionia St. ns wb",,  30.335896, -81.647186,,,0,
5152,,"E. 1st St. & Ionia St. fs eb",,  30.335784, -81.647194,,,0,
5153,,"E. 1st St. & Liberty St. ns wb",,  30.336128, -81.650232,,,0,
5154,,"E. 1st St. & Liberty St. ns eb",,  30.336029, -81.650241,,,0,
5156,,"Myrtle Ave. & State St. fs sb",,  30.339313, -81.675780,,,0,
5157,,"Richardson Rd. & Vermont Rd. fs sb",,  30.385224, -81.725282,,,0,
5158,,"Dundas Dr. & Busch Dr. fs sb",,  30.429248, -81.648488,,,0,
5161,,"Arlington Rd. & Bernita St.  ns eb",,  30.333523, -81.599515,,,0,
5162,,"Cesery Blvd. & Arlington Expwy. ns sb",,  30.327752, -81.597048,,,0,
5168,,"Post St. & Willow Branch Ave. fs wb",,  30.313352, -81.703470,,,0,
5169,,"Old Middleburg Rd. & Firetower Rd. fs nb",,  30.249093, -81.785616,,,0,
5170,,"27th St. & Chase Ave. ns eb",,  30.360862, -81.674148,,,0,
5172,,"Deerwood Park & Centurion Pwky. fs eb",,  30.241724, -81.546288,,,0,
5173,,"Deerwood Park & Centurion Pwky. ns eb",,  30.246077, -81.543187,,,0,
5174,,"Deerwood Park & Centurion Pwky. fs wb",,  30.244970, -81.544099,,,0,
5175,,"Deerwood Park & Centurion Pwky. ns wb",,  30.241807, -81.546481,,,0,
5180,,"Lane Ave & Watergate Ln fs nb",,  30.294593, -81.753184,,,0,
5181,,"Main St and Moale Ave ns nb",,  30.383478, -81.410760,,,0,
5183,,"Restlawn Dr. & Palmdale St. nb ns",,  30.388768, -81.696954,,,0,
5184,,"Timuquana Rd & Seaboard ns wb",,  30.247405, -81.730576,,,0,
5185,,"Bonneval Rd & Windsor Falls Dr nb ns",,  30.243239, -81.593749,,,0,
5186,,"Merrill Rd. & Wedgefield Blvd. wb ns",,  30.352281, -81.568586,,,0,
5187,,"Edgewood Ave. & 5th St. sb ns",,  30.344068, -81.731331,,,0,
5188,,"Philips Highway PNR (Onsite)",,  30.245219, -81.601739,,,0,
5190,,"Armsdale Rd. PNR",,  30.453846, -81.703096,,,0,
5193,,"Myrtle Ave. & Forsythe St. fs nb",,  30.330810, -81.676161,,,0,
5194,,"26th St. & opp. Charles St. fs eb",,  30.359911, -81.690121,,,0,
5195,,"College St. & James St. ns eb",,  30.313992, -81.698762,,,0,
5196,,"College St. & King St. ns eb",,  30.314030, -81.696474,,,0,
5197,,"Forsyth St. & Jefferson St. ns eb",,  30.328249, -81.667163,,,0,
5198,,"Myrtle Ave. & 24th St. fs sb",,  30.358651, -81.676065,,,0,
5200,,"College St. & Acosta St. - No Bus Stop Sign",,  30.314066, -81.692462,,,0,
5201,,"College St. & Stockton St. - No Bus Stop Sign",,  30.314841, -81.689377,,,0,
5202,,"College St. & Copeland St. - No Bus Stop Sign",,  30.315586, -81.685420,,,0,
5205,,"Boulevard & MLK Pkwy. sb",,  30.356361, -81.661354,,,0,
5206,,"Boulevard & MLK Pkwy. nb",,  30.356336, -81.661232,,,0,
5207,,"Lem Turner Rd. & Rowe Ave. sb",,  30.388226, -81.677602,,,0,
5208,,"Lem Turner Rd. & Bassett Rd. nb",,  30.410912, -81.689107,,,0,
5209,,"Lem Turner Rd. & Capper Rd. sb fs",,  30.427416, -81.694668,,,0,
5210,,"Lem Turner Rd. & Capper Rd. nb ns",,  30.427189, -81.694442,,,0,
5211,,"Museum Cir. & Main St. eb",,  30.318582, -81.660103,,,0,
5212,,"Soutel Hub",,  30.397661, -81.726478,,,0,
5214,,"Philips Hwy. & Baymeadows Rd. fs nb",,  30.221908, -81.586205,,,0,
5215,,"8590 Baymeadows Rd mid eb",,  30.220710, -81.579377,,,0,
5216,,"Freedom Commerce & opp. Dix Ellis Rd. fs sb",,  30.219953, -81.574606,,,0,
5217,,"8335 Freedom Crossing Trail mid wb",,  30.214088, -81.579533,,,0,
5218,,"8535 Baymeadows Rd. mid wb",,  30.220906, -81.579779,,,0,
5219,,"Philips Park & Ride southbound",,  30.244853, -81.601559,,,0,
5220,,"Ribault & Rogers St. sb ns",,  30.410970, -81.697356,,,0,
5221,,"Amazon Warehouse Pecan Park",,  30.465573, -81.678682,,,0,
5222,,"Town Center Pkwy & Midtown Pkwy",,  30.259553, -81.529394,,,0,
5223,,"Town Center Pkwy & Big Island Dr",,  30.255298, -81.531295,,,0,
5227,,"Baymeadows Rd and Old Kings EB FS",,  30.220557, -81.591736,,,0,
5228,,"103rd St and La Ventura WB FS",,  30.248460, -81.768952,,,0,
5233,,"Gate Pkwy & Burnt Mill Rd EB FS",,  30.244371, -81.534704,,,0,
5234,,"Gate Pkwy & Burnt Mill Rd WB FS",,  30.245057, -81.535016,,,0,
5235,,"Gate Pkwy & Yellow Fin Dr EB FS",,  30.245306, -81.529426,,,0,
5236,,"Gate Pkwy & OPP Yellow Fin Dr WB FS",,  30.244989, -81.530265,,,0,
5237,,"Gate Pkwy & Downshire Way EB FS",,  30.247729, -81.525032,,,0,
5238,,"Gate Pkwy & OPP Downshire Way WB FS",,  30.248042, -81.525886,,,0,
5239,,"Gate Pkwy & Burnt Mill Rd EB FS",,  30.241635, -81.520064,,,0,
5240,,"Gate Pkwy & Burnt Mill Rd WB FS",,  30.242402, -81.519706,,,0,
5241,,"Gate Pkwy & Point Meadows Rd WB FS",,  30.237171, -81.519061,,,0,
5242,,"Gate Pkwy & Point Meadows EB FS",,  30.236158, -81.518320,,,0,
5243,,"Baymeadows Rd E & Lake Mead Ave NB FS",,  30.232425, -81.510064,,,0,
5244,,"Baymeadows Rd E & Muir Woods Ave SB FS",,  30.233255, -81.510449,,,0,
5245,,"Gate Pkwy & Ozark Dr EB NS",,  30.235904, -81.512089,,,0,
5246,,"Gate Pkwy & OPP Ozark Dr WB FS",,  30.236240, -81.511957,,,0,
5247,,"Baymeadows Rd E & R G Skinner Pkwy SB FS",,  30.216908, -81.510275,,,0,
5248,,"Baymeadows Rd E & R G Skinner Pkwy NB FS",,  30.221296, -81.508744,,,0,
5249,,"Baymeadows Rd E & Sweetwater Pkwy SB FS",,  30.221265, -81.509128,,,0,
5250,,"Baymeadows Rd E & Sweetwater Pkwy NB FS",,  30.224871, -81.505935,,,0,
5251,,"Baymeadows Rd E & Stonebridge Vil SB FS",,  30.228536, -81.509651,,,0,
5252,,"Baymeadows Rd E & OPP Stonebridge Vil NB FS",,  30.227319, -81.507677,,,0,
5253,,"Baymeadows Rd E & 9A/Baymeadows Regional Park SB F",,  30.224781, -81.506261,,,0,
5254,,"Baymeadows Rd E & 9A/Baymeadows Regional Park NB F",,  30.227263, -81.507462,,,0,
5255,,"Baymeadows Rd & Reedy Branch Dr EB FS",,  30.215676, -81.519499,,,0,
5256,,"Baymeadows Rd & Point Meadows Dr WB FS",,  30.216011, -81.520412,,,0,
5257,,"Baymeadows Rd & Hampton Landing Dr EB FS",,  30.215439, -81.527271,,,0,
5258,,"Baymeadows Rd & OPP Hampton Landing Dr WB FS",,  30.215762, -81.528210,,,0,
5259,,"Baymeadows Rd & Hampton Ridge Blvd EB FS",,  30.215212, -81.538896,,,0,
5260,,"Baymeadows Rd & Hampton Ridge Blvd WB FS",,  30.215564, -81.539906,,,0,
5261,,"Baymeadows Rd & Baymeadows Apts EB FS",,  30.215767, -81.545100,,,0,
5262,,"Baymeadows Rd & OPP Baymeadows Apts WB FS",,  30.216410, -81.545567,,,0,
5263,,"Baymeadows Rd & Baymeadows Apts WB FS",,  30.218600, -81.550171,,,0,
5264,,"Baymeadows Rd & OPP Baymeadows Apts EB FS",,  30.218127, -81.549305,,,0,
5279,,"12356 Max Leggett Pkwy",,  30.483677, -81.635854,,,0,
5280,,"Amazon 103rd",,  30.246774, -81.864162,,,0,
5281,,"Spring Park and University SB FS",,  30.268261, -81.609807,,,0,
5282,,"Spring Park and Univeristy NB NS",,  30.267899, -81.609354,,,0,
5283,,"Beaches Hub",,  30.292238, -81.391446,,,0,
5285,,"Crown Point and Arrowhead WB NS",,  30.194484, -81.616341,,,0,
5289,,"Prominence Pkwy and Liberty Ridge NB NS",,  30.213678, -81.570524,,,0,
5294,,"FSCJ Campus South (New BRT Stop)",,  30.291391, -81.505511,,,0,
5303,,"5540 Moncrief Rd W",,  30.393305, -81.733290,,,0,
5306,,"New Kings Rd & Patterson Ave",,  30.393261, -81.737046,,,0,
5307,,"New Kings & Soutel SB NS",,  30.387241, -81.733708,,,0,
5308,,"Beach Blvd and FSCJ Rd WB FS",,  30.287270, -81.511212,,,0,
5310,,"Yulee Park & Ride (Lofton Square)",,  30.624756, -81.545508,,,0,
5311,,"Richardson Rd & Singleton Park",,  30.382931, -81.727527,,,0,
5312,,"University Hub",,  30.264837, -81.618497,,,0,
5313,,"Golfair Hub",,  30.365140, -81.665265,,,0,
5314,,"26th and Charles WB NS",,  30.360057, -81.689818,,,0,
5315,,"Restlawn and Ave B SB FS",,  30.381572, -81.699213,,,0,
5316,,"Blanding and Hick NB NS",,  30.202377, -81.739273,,,0,
5317,,"Gate and Deerwood SB FS",,  30.247250, -81.536083,,,0,
5319,,"Durbin Park Wal Mart",,  30.104507, -81.511496,,,0,
5320,,"St. Johns Adminsistration",,  29.935837, -81.337585,,,0,
5325,,"Waterworks Amazon",,  30.271449, -81.887349,,,0,
5326,,"Blanding at Amazon NB",,  30.257084, -81.742156,,,0,
5327,,"Blanding at Amazon SB",,  30.257524, -81.742275,,,0,
5328,,"Bush Drive Amazon Hub",,  30.423438, -81.625250,,,0,
5330,,"McDuff & Hunt",,  30.323571, -81.705514,,,0,
5332,,"5446 Moncrief",,  30.392673, -81.732467,,,0,
5333,,"Mayport Ferry",,  30.395599, -81.428973,,,0,
5335,,"Monument Rd & Shadowood Park Dr",,  30.353379, -81.509375,,,0,
6000,,"Mayport Ferry Landing",,  30.395682, -81.429717,,,0,
6001,,"Fort George Ferry Landing",,  30.394970, -81.436160,,,0,
8007,,"Rosa Parks Station Bay G",,  30.333442, -81.658857,,,0,
8008,,"Rosa Parks Station Bay H",,  30.333253, -81.658773,,,0,
8009,,"Rosa Parks Station Bay I",,  30.333031, -81.658860,,,0,
8101,,"JRTC Bay A",,  30.329419, -81.673879,,,0,
8103,,"JRTC Bay C",,  30.329415, -81.673627,,,0,
8104,,"JRTC Bay D",,  30.329496, -81.673510,,,0,
8105,,"JRTC Bay E",,  30.329384, -81.673426,,,0,
8106,,"JRTC Bay F",,  30.329465, -81.673307,,,0,
8107,,"JRTC Bay G",,  30.329341, -81.673215,,,0,
8108,,"JRTC Bay H",,  30.329417, -81.673101,,,0,
8109,,"JRTC Bay I",,  30.329321, -81.673011,,,0,
8110,,"JRTC Bay J",,  30.329394, -81.672901,,,0,
8111,,"JRTC Bay K",,  30.329285, -81.672814,,,0,
8112,,"JRTC Bay L",,  30.329359, -81.672719,,,0,
8113,,"JRTC Bay M",,  30.329250, -81.672631,,,0,
8114,,"JRTC Bay N",,  30.329326, -81.672512,,,0,
8115,,"JRTC Bay O",,  30.329217, -81.672446,,,0,
8116,,"JRTC Bay P",,  30.329277, -81.672293,,,0,
8117,,"JRTC Bay Q",,  30.329170, -81.672204,,,0,
8118,,"JRTC Bay R",,  30.329232, -81.672055,,,0,
8119,,"JRTC Bay S",,  30.329092, -81.671933,,,0,
8120,,"JRTC Bay T",,  30.328946, -81.671817,,,0,
8121,,"JRTC Bay U",,  30.328751, -81.671648,,,0,
